[2025-03-18 11:35:46] {GCS_IP=192.168.1.4, timestamp=2025-03-18 11:35:45, systemid=1, alt=-0.042, dist_traveled=null, wp_dist=0, dist_to_home=0.07836659314247994, vertical_speed=0.0, ground_speed=0.0, wind_vel=0.0, airspeed=0.0, roll=0.0, pitch=0.0, yaw=0.0, ch3percent=0.00, ch9out=0, ch10out=0, ch11out=0, ch12out=0, battery_voltage=0, battery_current=-1, lat=35.0766968, lon=129.0921086, ch3out=1000}
[2025-03-18 11:35:47] {GCS_IP=192.168.1.4, timestamp=2025-03-18 11:35:45, systemid=1, alt=-0.042, dist_traveled=null, wp_dist=0, dist_to_home=0.07836659314247994, vertical_speed=0.0, ground_speed=0.0, wind_vel=0.0, airspeed=0.0, roll=0.0, pitch=0.0, yaw=0.0, ch3percent=0.00, ch9out=0, ch10out=0, ch11out=0, ch12out=0, battery_voltage=0, battery_current=-1, lat=35.0766968, lon=129.0921086, ch3out=1000}
[2025-03-18 11:35:48] {GCS_IP=192.168.1.4, timestamp=2025-03-18 11:35:45, systemid=1, alt=-0.042, dist_traveled=null, wp_dist=0, dist_to_home=0.07836659314247994, vertical_speed=0.0, ground_speed=0.0, wind_vel=0.0, airspeed=0.0, roll=0.0, pitch=0.0, yaw=0.0, ch3percent=0.00, ch9out=0, ch10out=0, ch11out=0, ch12out=0, battery_voltage=0, battery_current=-1, lat=35.0766968, lon=129.0921086, ch3out=1000}
[2025-03-18 11:35:49] {GCS_IP=192.168.1.4, timestamp=2025-03-18 11:35:49, systemid=1, alt=-0.045, dist_traveled=null, wp_dist=0, dist_to_home=0.06733470411585789, vertical_speed=-0.0060607838, ground_speed=0.031494416, wind_vel=0.0, airspeed=0.3021903, roll=0.08, pitch=0.07, yaw=3.86, ch3percent=0.00, ch9out=0, ch10out=0, ch11out=0, ch12out=0, battery_voltage=0, battery_current=-1, lat=35.0766967, lon=129.0921086, ch3out=1000}
[2025-03-18 11:35:50] {GCS_IP=192.168.1.4, timestamp=2025-03-18 11:35:50, systemid=1, alt=-0.043, dist_traveled=null, wp_dist=0, dist_to_home=0.06733470411585789, vertical_speed=-0.004628507, ground_speed=0.03167317, wind_vel=0.0, airspeed=0.55381626, roll=0.08, pitch=0.07, yaw=3.86, ch3percent=0.00, ch9out=0, ch10out=0, ch11out=0, ch12out=0, battery_voltage=0, battery_current=-1, lat=35.0766967, lon=129.0921086, ch3out=1000}
[2025-03-18 11:35:51] {GCS_IP=192.168.1.4, timestamp=2025-03-18 11:35:51, systemid=1, alt=-0.052, dist_traveled=null, wp_dist=0, dist_to_home=0.06733470411585789, vertical_speed=-0.0052176304, ground_speed=0.031509895, wind_vel=0.0, airspeed=0.58293986, roll=0.08, pitch=0.07, yaw=3.86, ch3percent=0.00, ch9out=0, ch10out=0, ch11out=0, ch12out=0, battery_voltage=0, battery_current=-1, lat=35.0766967, lon=129.0921086, ch3out=1000}
[2025-03-18 11:35:52] {GCS_IP=192.168.1.4, timestamp=2025-03-18 11:35:52, systemid=1, alt=-0.01, dist_traveled=null, wp_dist=0, dist_to_home=0.07836659314247994, vertical_speed=-0.0040562367, ground_speed=0.03165465, wind_vel=0.0, airspeed=0.5992583, roll=0.08, pitch=0.07, yaw=3.86, ch3percent=0.00, ch9out=0, ch10out=0, ch11out=0, ch12out=0, battery_voltage=0, battery_current=-1, lat=35.0766968, lon=129.0921086, ch3out=1000}
[2025-03-18 11:35:53] {GCS_IP=192.168.1.4, timestamp=2025-03-18 11:35:53, systemid=1, alt=0.027, dist_traveled=null, wp_dist=0, dist_to_home=0.06733470411585789, vertical_speed=0.0040654186, ground_speed=0.031661272, wind_vel=0.0, airspeed=0.8841414, roll=0.08, pitch=0.07, yaw=3.86, ch3percent=0.00, ch9out=0, ch10out=0, ch11out=0, ch12out=0, battery_voltage=0, battery_current=-1, lat=35.0766967, lon=129.0921086, ch3out=1000}
[2025-03-18 11:35:54] {GCS_IP=192.168.1.4, timestamp=2025-03-18 11:35:54, systemid=1, alt=0.073, dist_traveled=null, wp_dist=0, dist_to_home=0.06733470411585789, vertical_speed=0.010473865, ground_speed=0.031529978, wind_vel=0.0, airspeed=1.103434, roll=0.08, pitch=0.07, yaw=3.86, ch3percent=0.00, ch9out=0, ch10out=0, ch11out=0, ch12out=0, battery_voltage=0, battery_current=-1, lat=35.0766967, lon=129.0921086, ch3out=1000}
[2025-03-18 11:35:55] {GCS_IP=192.168.1.4, timestamp=2025-03-18 11:35:55, systemid=1, alt=0.105, dist_traveled=null, wp_dist=0, dist_to_home=0.06733470411585789, vertical_speed=0.011770699, ground_speed=0.031326022, wind_vel=0.0, airspeed=0.5575663, roll=0.08, pitch=0.07, yaw=3.86, ch3percent=0.00, ch9out=0, ch10out=0, ch11out=0, ch12out=0, battery_voltage=0, battery_current=-1, lat=35.0766967, lon=129.0921086, ch3out=1000}
[2025-03-18 11:35:56] {GCS_IP=192.168.1.4, timestamp=2025-03-18 11:35:56, systemid=1, alt=0.106, dist_traveled=null, wp_dist=0, dist_to_home=0.07836659314247994, vertical_speed=0.0087141, ground_speed=0.0312532, wind_vel=0.0, airspeed=0.9274624, roll=0.08, pitch=0.07, yaw=3.86, ch3percent=0.00, ch9out=0, ch10out=0, ch11out=0, ch12out=0, battery_voltage=0, battery_current=-1, lat=35.0766968, lon=129.0921086, ch3out=1000}
[2025-03-18 11:35:57] {GCS_IP=192.168.1.4, timestamp=2025-03-18 11:35:57, systemid=1, alt=0.09, dist_traveled=null, wp_dist=0, dist_to_home=0.07836659314247994, vertical_speed=0.0068623535, ground_speed=0.03150946, wind_vel=0.0, airspeed=0.77640355, roll=0.08, pitch=0.07, yaw=3.86, ch3percent=0.00, ch9out=0, ch10out=0, ch11out=0, ch12out=0, battery_voltage=0, battery_current=-1, lat=35.0766968, lon=129.0921086, ch3out=1000}
[2025-03-18 11:35:58] {GCS_IP=192.168.1.4, timestamp=2025-03-18 11:35:58, systemid=1, alt=0.012, dist_traveled=null, wp_dist=0, dist_to_home=0.07836659314247994, vertical_speed=0.008549233, ground_speed=0.031521153, wind_vel=0.0, airspeed=0.31460187, roll=0.08, pitch=0.07, yaw=3.86, ch3percent=0.00, ch9out=0, ch10out=0, ch11out=0, ch12out=0, battery_voltage=0, battery_current=-1, lat=35.0766968, lon=129.0921086, ch3out=1000}
[2025-03-18 11:35:59] {GCS_IP=192.168.1.4, timestamp=2025-03-18 11:35:59, systemid=1, alt=0.035, dist_traveled=null, wp_dist=0, dist_to_home=0.06733470411585789, vertical_speed=0.01196606, ground_speed=0.03150024, wind_vel=0.0, airspeed=0.44635645, roll=0.08, pitch=0.07, yaw=3.85, ch3percent=0.00, ch9out=0, ch10out=0, ch11out=0, ch12out=0, battery_voltage=0, battery_current=-1, lat=35.0766967, lon=129.0921086, ch3out=1000}
[2025-03-18 11:36:00] {GCS_IP=192.168.1.4, timestamp=2025-03-18 11:36:00, systemid=1, alt=0.061, dist_traveled=null, wp_dist=0, dist_to_home=0.06733470411585789, vertical_speed=0.013613444, ground_speed=0.03133601, wind_vel=0.0, airspeed=1.0385635, roll=0.08, pitch=0.07, yaw=3.85, ch3percent=0.00, ch9out=0, ch10out=0, ch11out=0, ch12out=0, battery_voltage=0, battery_current=-1, lat=35.0766967, lon=129.0921086, ch3out=1000}
[2025-03-18 11:36:01] {GCS_IP=192.168.1.4, timestamp=2025-03-18 11:36:01, systemid=1, alt=0.067, dist_traveled=null, wp_dist=0, dist_to_home=0.06733470411585789, vertical_speed=0.00982936, ground_speed=0.03149514, wind_vel=0.0, airspeed=0.68309283, roll=0.08, pitch=0.07, yaw=3.85, ch3percent=0.00, ch9out=0, ch10out=0, ch11out=0, ch12out=0, battery_voltage=0, battery_current=-1, lat=35.0766967, lon=129.0921086, ch3out=1000}
[2025-03-18 11:36:02] {GCS_IP=192.168.1.4, timestamp=2025-03-18 11:36:02, systemid=1, alt=0.071, dist_traveled=null, wp_dist=0, dist_to_home=0.06733470411585789, vertical_speed=0.009521853, ground_speed=0.031815276, wind_vel=0.0, airspeed=0.6026287, roll=0.08, pitch=0.07, yaw=3.85, ch3percent=0.00, ch9out=0, ch10out=0, ch11out=0, ch12out=0, battery_voltage=0, battery_current=-1, lat=35.0766967, lon=129.0921086, ch3out=1000}
[2025-03-18 11:36:03] {GCS_IP=192.168.1.4, timestamp=2025-03-18 11:36:03, systemid=1, alt=0.082, dist_traveled=null, wp_dist=0, dist_to_home=0.06733470411585789, vertical_speed=0.010307037, ground_speed=0.031633813, wind_vel=0.0, airspeed=0.16718741, roll=0.08, pitch=0.07, yaw=3.85, ch3percent=0.00, ch9out=0, ch10out=0, ch11out=0, ch12out=0, battery_voltage=0, battery_current=-1, lat=35.0766967, lon=129.0921086, ch3out=1000}
[2025-03-18 11:36:04] {GCS_IP=192.168.1.4, timestamp=2025-03-18 11:36:04, systemid=1, alt=0.017, dist_traveled=null, wp_dist=0, dist_to_home=0.06733470411585789, vertical_speed=0.011139938, ground_speed=0.03153483, wind_vel=0.0, airspeed=0.64001906, roll=0.08, pitch=0.07, yaw=3.85, ch3percent=0.00, ch9out=0, ch10out=0, ch11out=0, ch12out=0, battery_voltage=0, battery_current=-1, lat=35.0766967, lon=129.0921086, ch3out=1000}
[2025-03-18 11:36:05] {GCS_IP=192.168.1.4, timestamp=2025-03-18 11:36:05, systemid=1, alt=0.049, dist_traveled=null, wp_dist=0, dist_to_home=0.07836659314247994, vertical_speed=0.013870728, ground_speed=0.031440485, wind_vel=0.0, airspeed=0.67095774, roll=0.08, pitch=0.07, yaw=3.85, ch3percent=0.00, ch9out=0, ch10out=0, ch11out=0, ch12out=0, battery_voltage=0, battery_current=-1, lat=35.0766968, lon=129.0921086, ch3out=1000}
[2025-03-18 11:36:06] {GCS_IP=192.168.1.4, timestamp=2025-03-18 11:36:06, systemid=1, alt=0.052, dist_traveled=null, wp_dist=0, dist_to_home=0.07836659314247994, vertical_speed=0.012350175, ground_speed=0.03141517, wind_vel=0.0, airspeed=0.7252697, roll=0.08, pitch=0.07, yaw=3.85, ch3percent=0.00, ch9out=0, ch10out=0, ch11out=0, ch12out=0, battery_voltage=0, battery_current=-1, lat=35.0766968, lon=129.0921086, ch3out=1000}
[2025-03-18 11:36:07] {GCS_IP=192.168.1.4, timestamp=2025-03-18 11:36:07, systemid=1, alt=0.059, dist_traveled=null, wp_dist=0, dist_to_home=0.06733470411585789, vertical_speed=0.009443426, ground_speed=0.03167174, wind_vel=0.0, airspeed=0.72379756, roll=0.08, pitch=0.07, yaw=3.85, ch3percent=0.00, ch9out=0, ch10out=0, ch11out=0, ch12out=0, battery_voltage=0, battery_current=-1, lat=35.0766967, lon=129.0921086, ch3out=1000}
[2025-03-18 11:36:08] {GCS_IP=192.168.1.4, timestamp=2025-03-18 11:36:08, systemid=1, alt=0.066, dist_traveled=null, wp_dist=0, dist_to_home=0.07836659314247994, vertical_speed=0.008399578, ground_speed=0.031543165, wind_vel=0.0, airspeed=0.93240017, roll=0.08, pitch=0.06, yaw=3.85, ch3percent=0.00, ch9out=0, ch10out=0, ch11out=0, ch12out=0, battery_voltage=0, battery_current=-1, lat=35.0766968, lon=129.0921086, ch3out=1000}
[2025-03-18 11:36:09] {GCS_IP=192.168.1.4, timestamp=2025-03-18 11:36:09, systemid=1, alt=0.066, dist_traveled=null, wp_dist=0, dist_to_home=0.07836659314247994, vertical_speed=0.008024789, ground_speed=0.031350702, wind_vel=0.0, airspeed=0.53723, roll=0.08, pitch=0.07, yaw=3.85, ch3percent=0.00, ch9out=0, ch10out=0, ch11out=0, ch12out=0, battery_voltage=0, battery_current=-1, lat=35.0766968, lon=129.0921086, ch3out=1000}
[2025-03-18 11:36:10] {GCS_IP=192.168.1.4, timestamp=2025-03-18 11:36:10, systemid=1, alt=0.014, dist_traveled=null, wp_dist=0, dist_to_home=0.07836659314247994, vertical_speed=0.008308305, ground_speed=0.031272124, wind_vel=0.0, airspeed=0.49645635, roll=0.08, pitch=0.07, yaw=3.85, ch3percent=0.00, ch9out=0, ch10out=0, ch11out=0, ch12out=0, battery_voltage=0, battery_current=-1, lat=35.0766968, lon=129.0921086, ch3out=1000}
[2025-03-18 11:36:11] {GCS_IP=192.168.1.4, timestamp=2025-03-18 11:36:11, systemid=1, alt=0.041, dist_traveled=null, wp_dist=0, dist_to_home=0.07836659314247994, vertical_speed=0.010842675, ground_speed=0.031399284, wind_vel=0.0, airspeed=0.13965867, roll=0.08, pitch=0.07, yaw=3.85, ch3percent=0.00, ch9out=0, ch10out=0, ch11out=0, ch12out=0, battery_voltage=0, battery_current=-1, lat=35.0766968, lon=129.0921086, ch3out=1000}
[2025-03-18 11:36:12] {GCS_IP=192.168.1.4, timestamp=2025-03-18 11:36:12, systemid=1, alt=0.06, dist_traveled=null, wp_dist=0, dist_to_home=0.07836659314247994, vertical_speed=0.010767958, ground_speed=0.03141151, wind_vel=0.0, airspeed=0.24557671, roll=0.08, pitch=0.07, yaw=3.85, ch3percent=0.00, ch9out=0, ch10out=0, ch11out=0, ch12out=0, battery_voltage=0, battery_current=-1, lat=35.0766968, lon=129.0921086, ch3out=1000}
[2025-03-18 11:36:13] {GCS_IP=192.168.1.4, timestamp=2025-03-18 11:36:13, systemid=1, alt=0.085, dist_traveled=null, wp_dist=0, dist_to_home=0.07836659314247994, vertical_speed=0.012044354, ground_speed=0.031308714, wind_vel=0.0, airspeed=0.8200133, roll=0.08, pitch=0.07, yaw=3.85, ch3percent=0.00, ch9out=0, ch10out=0, ch11out=0, ch12out=0, battery_voltage=0, battery_current=-1, lat=35.0766968, lon=129.0921086, ch3out=1000}
[2025-03-18 11:36:14] {GCS_IP=192.168.1.4, timestamp=2025-03-18 11:36:14, systemid=1, alt=0.107, dist_traveled=null, wp_dist=0, dist_to_home=0.07836659314247994, vertical_speed=0.0124253165, ground_speed=0.031236302, wind_vel=0.0, airspeed=0.80135185, roll=0.08, pitch=0.07, yaw=3.85, ch3percent=0.00, ch9out=0, ch10out=0, ch11out=0, ch12out=0, battery_voltage=0, battery_current=-1, lat=35.0766968, lon=129.0921086, ch3out=1000}
[2025-03-18 11:36:15] {GCS_IP=192.168.1.4, timestamp=2025-03-18 11:36:15, systemid=1, alt=0.098, dist_traveled=null, wp_dist=0, dist_to_home=0.06733470411585789, vertical_speed=0.009972254, ground_speed=0.031448957, wind_vel=0.0, airspeed=0.61473197, roll=0.08, pitch=0.07, yaw=3.85, ch3percent=0.00, ch9out=0, ch10out=0, ch11out=0, ch12out=0, battery_voltage=0, battery_current=-1, lat=35.0766967, lon=129.0921086, ch3out=1000}
[2025-03-18 11:36:16] {GCS_IP=192.168.1.4, timestamp=2025-03-18 11:36:16, systemid=1, alt=-0.013, dist_traveled=null, wp_dist=0, dist_to_home=0.06733470411585789, vertical_speed=0.00629021, ground_speed=0.031404667, wind_vel=0.0, airspeed=0.9001011, roll=0.08, pitch=0.07, yaw=3.85, ch3percent=0.00, ch9out=0, ch10out=0, ch11out=0, ch12out=0, battery_voltage=0, battery_current=-1, lat=35.0766967, lon=129.0921086, ch3out=1000}
[2025-03-18 11:36:17] {GCS_IP=192.168.1.4, timestamp=2025-03-18 11:36:17, systemid=1, alt=-0.036, dist_traveled=null, wp_dist=0, dist_to_home=0.06733470411585789, vertical_speed=5.518529E-4, ground_speed=0.03140898, wind_vel=0.0, airspeed=0.88637847, roll=0.08, pitch=0.07, yaw=3.85, ch3percent=0.00, ch9out=0, ch10out=0, ch11out=0, ch12out=0, battery_voltage=0, battery_current=-1, lat=35.0766967, lon=129.0921086, ch3out=1000}
[2025-03-18 11:36:18] {GCS_IP=192.168.1.4, timestamp=2025-03-18 11:36:18, systemid=1, alt=-0.042, dist_traveled=null, wp_dist=0, dist_to_home=0.06733470411585789, vertical_speed=-0.0025256632, ground_speed=0.031109946, wind_vel=0.0, airspeed=0.39806783, roll=0.08, pitch=0.07, yaw=3.85, ch3percent=0.00, ch9out=0, ch10out=0, ch11out=0, ch12out=0, battery_voltage=0, battery_current=-1, lat=35.0766967, lon=129.0921086, ch3out=1000}
[2025-03-18 11:36:19] {GCS_IP=192.168.1.4, timestamp=2025-03-18 11:36:19, systemid=1, alt=-0.047, dist_traveled=null, wp_dist=0, dist_to_home=0.07836659314247994, vertical_speed=-0.0036467032, ground_speed=0.030786218, wind_vel=0.0, airspeed=0.22061652, roll=0.08, pitch=0.07, yaw=3.85, ch3percent=0.00, ch9out=0, ch10out=0, ch11out=0, ch12out=0, battery_voltage=0, battery_current=-1, lat=35.0766968, lon=129.0921086, ch3out=1000}
[2025-03-18 11:36:20] {GCS_IP=192.168.1.4, timestamp=2025-03-18 11:36:20, systemid=1, alt=-0.047, dist_traveled=null, wp_dist=0, dist_to_home=0.07836659314247994, vertical_speed=-0.0042341137, ground_speed=0.030911466, wind_vel=0.0, airspeed=0.49286464, roll=0.08, pitch=0.07, yaw=3.85, ch3percent=0.00, ch9out=0, ch10out=0, ch11out=0, ch12out=0, battery_voltage=0, battery_current=-1, lat=35.0766968, lon=129.0921086, ch3out=1000}
[2025-03-18 11:36:21] {GCS_IP=192.168.1.4, timestamp=2025-03-18 11:36:21, systemid=1, alt=-0.035, dist_traveled=null, wp_dist=0, dist_to_home=0.07836659314247994, vertical_speed=-0.0032778548, ground_speed=0.030916175, wind_vel=0.0, airspeed=0.50220746, roll=0.08, pitch=0.07, yaw=3.85, ch3percent=0.00, ch9out=0, ch10out=0, ch11out=0, ch12out=0, battery_voltage=0, battery_current=-1, lat=35.0766968, lon=129.0921086, ch3out=1000}
[2025-03-18 11:36:22] {GCS_IP=192.168.1.4, timestamp=2025-03-18 11:36:22, systemid=1, alt=-0.051, dist_traveled=null, wp_dist=0, dist_to_home=0.07836659314247994, vertical_speed=-0.012402555, ground_speed=0.03118866, wind_vel=0.0, airspeed=0.8584278, roll=0.08, pitch=0.07, yaw=3.85, ch3percent=0.00, ch9out=0, ch10out=0, ch11out=0, ch12out=0, battery_voltage=0, battery_current=-1, lat=35.0766968, lon=129.0921086, ch3out=1000}
[2025-03-18 11:36:23] {GCS_IP=192.168.1.4, timestamp=2025-03-18 11:36:23, systemid=1, alt=-0.085, dist_traveled=null, wp_dist=0, dist_to_home=0.07836659314247994, vertical_speed=-0.0150817875, ground_speed=0.03142012, wind_vel=0.0, airspeed=0.8122748, roll=0.08, pitch=0.07, yaw=3.85, ch3percent=0.00, ch9out=0, ch10out=0, ch11out=0, ch12out=0, battery_voltage=0, battery_current=-1, lat=35.0766968, lon=129.0921086, ch3out=1000}
[2025-03-18 11:36:24] {GCS_IP=192.168.1.4, timestamp=2025-03-18 11:36:24, systemid=1, alt=-0.106, dist_traveled=null, wp_dist=0, dist_to_home=0.06733470411585789, vertical_speed=-0.016483001, ground_speed=0.03170727, wind_vel=0.0, airspeed=0.6994095, roll=0.08, pitch=0.07, yaw=3.85, ch3percent=0.00, ch9out=0, ch10out=0, ch11out=0, ch12out=0, battery_voltage=0, battery_current=-1, lat=35.0766967, lon=129.0921086, ch3out=1000}
[2025-03-18 11:36:25] {GCS_IP=192.168.1.4, timestamp=2025-03-18 11:36:25, systemid=1, alt=-0.138, dist_traveled=null, wp_dist=0, dist_to_home=0.06733470411585789, vertical_speed=-0.018890115, ground_speed=0.031825237, wind_vel=0.0, airspeed=0.96248305, roll=0.08, pitch=0.07, yaw=3.85, ch3percent=0.00, ch9out=0, ch10out=0, ch11out=0, ch12out=0, battery_voltage=0, battery_current=-1, lat=35.0766967, lon=129.0921086, ch3out=1000}
[2025-03-18 11:36:26] {GCS_IP=192.168.1.4, timestamp=2025-03-18 11:36:26, systemid=1, alt=-0.157, dist_traveled=null, wp_dist=0, dist_to_home=0.06733470411585789, vertical_speed=-0.018031064, ground_speed=0.03173601, wind_vel=0.0, airspeed=0.48039535, roll=0.08, pitch=0.07, yaw=3.85, ch3percent=0.00, ch9out=0, ch10out=0, ch11out=0, ch12out=0, battery_voltage=0, battery_current=-1, lat=35.0766967, lon=129.0921086, ch3out=1000}
[2025-03-18 11:36:27] {GCS_IP=192.168.1.4, timestamp=2025-03-18 11:36:27, systemid=1, alt=-0.145, dist_traveled=null, wp_dist=0, dist_to_home=0.06733470411585789, vertical_speed=-0.017186191, ground_speed=0.031826615, wind_vel=0.0, airspeed=0.5858297, roll=0.08, pitch=0.07, yaw=3.85, ch3percent=0.00, ch9out=0, ch10out=0, ch11out=0, ch12out=0, battery_voltage=0, battery_current=-1, lat=35.0766967, lon=129.0921086, ch3out=1000}
[2025-03-18 11:36:28] {GCS_IP=192.168.1.4, timestamp=2025-03-18 11:36:28, systemid=1, alt=-0.003, dist_traveled=null, wp_dist=0, dist_to_home=0.06733470411585789, vertical_speed=-0.014717425, ground_speed=0.031695236, wind_vel=0.0, airspeed=0.6168045, roll=0.08, pitch=0.07, yaw=3.85, ch3percent=0.00, ch9out=0, ch10out=0, ch11out=0, ch12out=0, battery_voltage=0, battery_current=-1, lat=35.0766967, lon=129.0921086, ch3out=1000}
[2025-03-18 11:36:29] {GCS_IP=192.168.1.4, timestamp=2025-03-18 11:36:29, systemid=1, alt=0.0, dist_traveled=null, wp_dist=0, dist_to_home=0.06733470411585789, vertical_speed=-0.011563205, ground_speed=0.031552136, wind_vel=0.0, airspeed=0.81646854, roll=0.08, pitch=0.07, yaw=3.85, ch3percent=0.00, ch9out=0, ch10out=0, ch11out=0, ch12out=0, battery_voltage=0, battery_current=-1, lat=35.0766967, lon=129.0921086, ch3out=1000}
[2025-03-18 11:36:30] {GCS_IP=192.168.1.4, timestamp=2025-03-18 11:36:30, systemid=1, alt=-0.007, dist_traveled=null, wp_dist=0, dist_to_home=0.06733470411585789, vertical_speed=-0.00893693, ground_speed=0.03126401, wind_vel=0.0, airspeed=0.818367, roll=0.08, pitch=0.07, yaw=3.85, ch3percent=0.00, ch9out=0, ch10out=0, ch11out=0, ch12out=0, battery_voltage=0, battery_current=-1, lat=35.0766967, lon=129.0921086, ch3out=1000}
[2025-03-18 11:36:31] {GCS_IP=192.168.1.4, timestamp=2025-03-18 11:36:31, systemid=1, alt=0.0, dist_traveled=null, wp_dist=0, dist_to_home=0.06733470411585789, vertical_speed=-0.005677698, ground_speed=0.031027934, wind_vel=0.0, airspeed=0.6601372, roll=0.07, pitch=0.07, yaw=3.85, ch3percent=0.00, ch9out=0, ch10out=0, ch11out=0, ch12out=0, battery_voltage=0, battery_current=-1, lat=35.0766967, lon=129.0921086, ch3out=1000}
[2025-03-18 11:36:32] {GCS_IP=192.168.1.4, timestamp=2025-03-18 11:36:32, systemid=1, alt=0.016, dist_traveled=null, wp_dist=0, dist_to_home=0.07836659314247994, vertical_speed=-0.0018887507, ground_speed=0.030406455, wind_vel=0.0, airspeed=0.541643, roll=0.07, pitch=0.06, yaw=3.84, ch3percent=0.00, ch9out=0, ch10out=0, ch11out=0, ch12out=0, battery_voltage=0, battery_current=-1, lat=35.0766968, lon=129.0921086, ch3out=1000}
[2025-03-18 11:36:33] {GCS_IP=192.168.1.4, timestamp=2025-03-18 11:36:33, systemid=1, alt=0.001, dist_traveled=null, wp_dist=0, dist_to_home=0.07836659314247994, vertical_speed=-0.003201782, ground_speed=0.029146438, wind_vel=0.0, airspeed=0.29711422, roll=0.07, pitch=0.06, yaw=3.84, ch3percent=0.00, ch9out=0, ch10out=0, ch11out=0, ch12out=0, battery_voltage=0, battery_current=-1, lat=35.0766968, lon=129.0921086, ch3out=1000}
[2025-03-18 11:36:34] {GCS_IP=192.168.1.4, timestamp=2025-03-18 11:36:34, systemid=1, alt=-0.024, dist_traveled=null, wp_dist=0, dist_to_home=0.07836659314247994, vertical_speed=-0.007380666, ground_speed=0.027483182, wind_vel=0.0, airspeed=0.96307164, roll=0.06, pitch=0.05, yaw=3.83, ch3percent=0.00, ch9out=0, ch10out=0, ch11out=0, ch12out=0, battery_voltage=0, battery_current=-1, lat=35.0766968, lon=129.0921086, ch3out=1000}
[2025-03-18 11:36:35] {GCS_IP=192.168.1.4, timestamp=2025-03-18 11:36:35, systemid=1, alt=-0.058, dist_traveled=null, wp_dist=0, dist_to_home=0.07836659314247994, vertical_speed=-0.01001986, ground_speed=0.025321653, wind_vel=0.0, airspeed=0.79583234, roll=0.06, pitch=0.05, yaw=3.82, ch3percent=0.00, ch9out=0, ch10out=0, ch11out=0, ch12out=0, battery_voltage=0, battery_current=-1, lat=35.0766968, lon=129.0921086, ch3out=1000}
[2025-03-18 11:36:36] {GCS_IP=192.168.1.4, timestamp=2025-03-18 11:36:36, systemid=1, alt=-0.087, dist_traveled=null, wp_dist=0, dist_to_home=0.07836659314247994, vertical_speed=-0.013001795, ground_speed=0.022669712, wind_vel=0.0, airspeed=0.24265137, roll=0.05, pitch=0.04, yaw=3.82, ch3percent=0.00, ch9out=0, ch10out=0, ch11out=0, ch12out=0, battery_voltage=0, battery_current=-1, lat=35.0766968, lon=129.0921086, ch3out=1000}
[2025-03-18 11:36:37] {GCS_IP=192.168.1.4, timestamp=2025-03-18 11:36:37, systemid=1, alt=-0.118, dist_traveled=null, wp_dist=0, dist_to_home=0.07836659314247994, vertical_speed=-0.014720783, ground_speed=0.019605786, wind_vel=0.0, airspeed=1.1981354, roll=0.05, pitch=0.03, yaw=3.80, ch3percent=0.00, ch9out=0, ch10out=0, ch11out=0, ch12out=0, battery_voltage=0, battery_current=-1, lat=35.0766968, lon=129.0921086, ch3out=1000}
[2025-03-18 11:36:38] {GCS_IP=192.168.1.4, timestamp=2025-03-18 11:36:38, systemid=1, alt=-0.127, dist_traveled=null, wp_dist=0, dist_to_home=0.07836659314247994, vertical_speed=-0.012931041, ground_speed=0.016506445, wind_vel=0.0, airspeed=0.10741001, roll=0.04, pitch=0.03, yaw=3.79, ch3percent=0.00, ch9out=0, ch10out=0, ch11out=0, ch12out=0, battery_voltage=0, battery_current=-1, lat=35.0766968, lon=129.0921086, ch3out=1000}
[2025-03-18 11:36:39] {GCS_IP=192.168.1.4, timestamp=2025-03-18 11:36:39, systemid=1, alt=-0.125, dist_traveled=null, wp_dist=0, dist_to_home=0.07836659314247994, vertical_speed=-0.013609164, ground_speed=0.013641651, wind_vel=0.0, airspeed=0.59029514, roll=0.03, pitch=0.02, yaw=3.78, ch3percent=0.00, ch9out=0, ch10out=0, ch11out=0, ch12out=0, battery_voltage=0, battery_current=-1, lat=35.0766968, lon=129.0921086, ch3out=1000}
[2025-03-18 11:36:40] {GCS_IP=192.168.1.4, timestamp=2025-03-18 11:36:40, systemid=1, alt=0.001, dist_traveled=null, wp_dist=0, dist_to_home=0.07783644877070796, vertical_speed=-0.010455776, ground_speed=0.010536514, wind_vel=0.0, airspeed=0.5669326, roll=0.02, pitch=0.01, yaw=3.76, ch3percent=0.00, ch9out=0, ch10out=0, ch11out=0, ch12out=0, battery_voltage=0, battery_current=-1, lat=35.0766968, lon=129.0921085, ch3out=1000}
[2025-03-18 11:36:41] {GCS_IP=192.168.1.4, timestamp=2025-03-18 11:36:41, systemid=1, alt=0.032, dist_traveled=null, wp_dist=0, dist_to_home=0.07783644877070796, vertical_speed=-0.0029869005, ground_speed=0.0074237697, wind_vel=0.0, airspeed=0.8825657, roll=0.02, pitch=0.01, yaw=3.74, ch3percent=0.00, ch9out=0, ch10out=0, ch11out=0, ch12out=0, battery_voltage=0, battery_current=-1, lat=35.0766968, lon=129.0921085, ch3out=1000}
[2025-03-18 11:36:42] {GCS_IP=192.168.1.4, timestamp=2025-03-18 11:36:42, systemid=1, alt=0.04, dist_traveled=null, wp_dist=0, dist_to_home=0.07783644877070796, vertical_speed=2.620855E-4, ground_speed=0.0047718594, wind_vel=0.0, airspeed=0.55840737, roll=0.01, pitch=0.00, yaw=3.73, ch3percent=0.00, ch9out=0, ch10out=0, ch11out=0, ch12out=0, battery_voltage=0, battery_current=-1, lat=35.0766968, lon=129.0921085, ch3out=1000}
[2025-03-18 11:36:43] {GCS_IP=192.168.1.4, timestamp=2025-03-18 11:36:43, systemid=1, alt=0.055, dist_traveled=null, wp_dist=0, dist_to_home=0.07783644877070796, vertical_speed=0.0031955098, ground_speed=0.0022935024, wind_vel=0.0, airspeed=0.31424657, roll=0.01, pitch=-0.01, yaw=3.71, ch3percent=0.00, ch9out=0, ch10out=0, ch11out=0, ch12out=0, battery_voltage=0, battery_current=-1, lat=35.0766968, lon=129.0921085, ch3out=1000}
[2025-03-18 11:36:44] {GCS_IP=192.168.1.4, timestamp=2025-03-18 11:36:44, systemid=1, alt=0.044, dist_traveled=null, wp_dist=0, dist_to_home=0.07783644877070796, vertical_speed=0.0022305036, ground_speed=3.7338765E-4, wind_vel=0.0, airspeed=0.90145415, roll=0.00, pitch=-0.01, yaw=3.69, ch3percent=0.00, ch9out=0, ch10out=0, ch11out=0, ch12out=0, battery_voltage=0, battery_current=-1, lat=35.0766968, lon=129.0921085, ch3out=1000}
[2025-03-18 11:36:45] {GCS_IP=192.168.1.4, timestamp=2025-03-18 11:36:45, systemid=1, alt=0.048, dist_traveled=null, wp_dist=0, dist_to_home=0.07783644877070796, vertical_speed=0.004373154, ground_speed=0.0015672887, wind_vel=0.0, airspeed=0.3436179, roll=-0.00, pitch=-0.01, yaw=3.66, ch3percent=0.00, ch9out=0, ch10out=0, ch11out=0, ch12out=0, battery_voltage=0, battery_current=-1, lat=35.0766968, lon=129.0921085, ch3out=1000}
[2025-03-18 11:36:46] {GCS_IP=192.168.1.4, timestamp=2025-03-18 11:36:46, systemid=1, alt=0.01, dist_traveled=null, wp_dist=0, dist_to_home=0.08942018621741533, vertical_speed=0.00576128, ground_speed=0.003567203, wind_vel=0.0, airspeed=0.9641967, roll=-0.01, pitch=-0.02, yaw=3.64, ch3percent=0.00, ch9out=0, ch10out=0, ch11out=0, ch12out=0, battery_voltage=0, battery_current=-1, lat=35.0766969, lon=129.0921084, ch3out=1000}
[2025-03-18 11:36:47] {GCS_IP=192.168.1.4, timestamp=2025-03-18 11:36:47, systemid=1, alt=0.018, dist_traveled=null, wp_dist=0, dist_to_home=0.08942018621741533, vertical_speed=0.0068364576, ground_speed=0.005452899, wind_vel=0.0, airspeed=0.8156572, roll=-0.01, pitch=-0.02, yaw=3.62, ch3percent=0.00, ch9out=0, ch10out=0, ch11out=0, ch12out=0, battery_voltage=0, battery_current=-1, lat=35.0766969, lon=129.0921084, ch3out=1000}
[2025-03-18 11:36:48] {GCS_IP=192.168.1.4, timestamp=2025-03-18 11:36:48, systemid=1, alt=0.033, dist_traveled=null, wp_dist=0, dist_to_home=0.08942018621741533, vertical_speed=0.008302327, ground_speed=0.0071017076, wind_vel=0.0, airspeed=0.4887006, roll=-0.02, pitch=-0.03, yaw=3.60, ch3percent=0.00, ch9out=0, ch10out=0, ch11out=0, ch12out=0, battery_voltage=0, battery_current=-1, lat=35.0766969, lon=129.0921084, ch3out=1000}
[2025-03-18 11:36:49] {GCS_IP=192.168.1.4, timestamp=2025-03-18 11:36:49, systemid=1, alt=0.039, dist_traveled=null, wp_dist=0, dist_to_home=0.08942018621741533, vertical_speed=0.007779268, ground_speed=0.008730779, wind_vel=0.0, airspeed=0.56685257, roll=-0.02, pitch=-0.03, yaw=3.57, ch3percent=0.00, ch9out=0, ch10out=0, ch11out=0, ch12out=0, battery_voltage=0, battery_current=-1, lat=35.0766969, lon=129.0921084, ch3out=1000}
[2025-03-18 11:36:50] {GCS_IP=192.168.1.4, timestamp=2025-03-18 11:36:50, systemid=1, alt=0.049, dist_traveled=null, wp_dist=0, dist_to_home=0.08942018621741533, vertical_speed=0.008515365, ground_speed=0.010316425, wind_vel=0.0, airspeed=0.38336664, roll=-0.02, pitch=-0.03, yaw=3.55, ch3percent=0.00, ch9out=0, ch10out=0, ch11out=0, ch12out=0, battery_voltage=0, battery_current=-1, lat=35.0766969, lon=129.0921084, ch3out=1000}
[2025-03-18 11:36:51] {GCS_IP=192.168.1.4, timestamp=2025-03-18 11:36:51, systemid=1, alt=0.065, dist_traveled=null, wp_dist=0, dist_to_home=0.08942018621741533, vertical_speed=0.011509926, ground_speed=0.011774745, wind_vel=0.0, airspeed=0.34561843, roll=-0.03, pitch=-0.04, yaw=3.52, ch3percent=0.00, ch9out=0, ch10out=0, ch11out=0, ch12out=0, battery_voltage=0, battery_current=-1, lat=35.0766969, lon=129.0921084, ch3out=1000}
[2025-03-18 11:36:52] {GCS_IP=192.168.1.4, timestamp=2025-03-18 11:36:52, systemid=1, alt=-0.012, dist_traveled=null, wp_dist=0, dist_to_home=0.08942018621741533, vertical_speed=0.007544608, ground_speed=0.013422362, wind_vel=0.0, airspeed=0.6733288, roll=-0.03, pitch=-0.04, yaw=3.49, ch3percent=0.00, ch9out=0, ch10out=0, ch11out=0, ch12out=0, battery_voltage=0, battery_current=-1, lat=35.0766969, lon=129.0921084, ch3out=1000}
[2025-03-18 11:36:53] {GCS_IP=192.168.1.4, timestamp=2025-03-18 11:36:53, systemid=1, alt=-0.033, dist_traveled=null, wp_dist=0, dist_to_home=0.08942018621741533, vertical_speed=0.003440962, ground_speed=0.014517268, wind_vel=0.0, airspeed=0.69780564, roll=-0.03, pitch=-0.04, yaw=3.47, ch3percent=0.00, ch9out=0, ch10out=0, ch11out=0, ch12out=0, battery_voltage=0, battery_current=-1, lat=35.0766969, lon=129.0921084, ch3out=1000}
[2025-03-18 11:36:54] {GCS_IP=192.168.1.4, timestamp=2025-03-18 11:36:54, systemid=1, alt=-0.028, dist_traveled=null, wp_dist=0, dist_to_home=0.0907986794696078, vertical_speed=0.003509636, ground_speed=0.015741767, wind_vel=0.0, airspeed=0.7932541, roll=-0.03, pitch=-0.04, yaw=3.44, ch3percent=0.00, ch9out=0, ch10out=0, ch11out=0, ch12out=0, battery_voltage=0, battery_current=-1, lat=35.0766969, lon=129.0921083, ch3out=1000}
[2025-03-18 11:36:55] {GCS_IP=192.168.1.4, timestamp=2025-03-18 11:36:55, systemid=1, alt=-0.037, dist_traveled=null, wp_dist=0, dist_to_home=0.0907986794696078, vertical_speed=7.301599E-4, ground_speed=0.01644108, wind_vel=0.0, airspeed=0.90997595, roll=-0.03, pitch=-0.05, yaw=3.41, ch3percent=0.00, ch9out=0, ch10out=0, ch11out=0, ch12out=0, battery_voltage=0, battery_current=-1, lat=35.0766969, lon=129.0921083, ch3out=1000}
[2025-03-18 11:36:56] {GCS_IP=192.168.1.4, timestamp=2025-03-18 11:36:56, systemid=1, alt=-0.038, dist_traveled=null, wp_dist=0, dist_to_home=0.10171692688794604, vertical_speed=2.6195397E-4, ground_speed=0.01695346, wind_vel=0.0, airspeed=0.0713016, roll=-0.04, pitch=-0.05, yaw=3.39, ch3percent=0.00, ch9out=0, ch10out=0, ch11out=0, ch12out=0, battery_voltage=0, battery_current=-1, lat=35.076697, lon=129.0921083, ch3out=1000}
[2025-03-18 11:36:57] {GCS_IP=192.168.1.4, timestamp=2025-03-18 11:36:57, systemid=1, alt=-0.045, dist_traveled=null, wp_dist=0, dist_to_home=0.10171692688794604, vertical_speed=-0.0025050885, ground_speed=0.017583385, wind_vel=0.0, airspeed=0.4981952, roll=-0.04, pitch=-0.05, yaw=3.36, ch3percent=0.00, ch9out=0, ch10out=0, ch11out=0, ch12out=0, battery_voltage=0, battery_current=-1, lat=35.076697, lon=129.0921083, ch3out=1000}
[2025-03-18 11:36:58] {GCS_IP=192.168.1.4, timestamp=2025-03-18 11:36:58, systemid=1, alt=0.021, dist_traveled=null, wp_dist=0, dist_to_home=0.10171692688794604, vertical_speed=0.001633775, ground_speed=0.018304145, wind_vel=0.0, airspeed=0.8221856, roll=-0.04, pitch=-0.05, yaw=3.33, ch3percent=0.00, ch9out=0, ch10out=0, ch11out=0, ch12out=0, battery_voltage=0, battery_current=-1, lat=35.076697, lon=129.0921083, ch3out=1000}
[2025-03-18 11:37:00] {GCS_IP=192.168.1.4, timestamp=2025-03-18 11:36:59, systemid=1, alt=0.051, dist_traveled=null, wp_dist=0, dist_to_home=0.10171692688794604, vertical_speed=0.0057418314, ground_speed=0.018918615, wind_vel=0.0, airspeed=0.6664315, roll=-0.04, pitch=-0.05, yaw=3.30, ch3percent=0.00, ch9out=0, ch10out=0, ch11out=0, ch12out=0, battery_voltage=0, battery_current=-1, lat=35.076697, lon=129.0921083, ch3out=1000}
[2025-03-18 11:37:01] {GCS_IP=192.168.1.4, timestamp=2025-03-18 11:37:00, systemid=1, alt=0.08, dist_traveled=null, wp_dist=0, dist_to_home=0.10171692688794604, vertical_speed=0.009440812, ground_speed=0.01993083, wind_vel=0.0, airspeed=1.0303261, roll=-0.04, pitch=-0.06, yaw=3.27, ch3percent=0.00, ch9out=0, ch10out=0, ch11out=0, ch12out=0, battery_voltage=0, battery_current=-1, lat=35.076697, lon=129.0921083, ch3out=1000}
[2025-03-18 11:37:02] {GCS_IP=192.168.1.4, timestamp=2025-03-18 11:37:01, systemid=1, alt=0.087, dist_traveled=null, wp_dist=0, dist_to_home=0.10171692688794604, vertical_speed=0.008920459, ground_speed=0.020852115, wind_vel=0.0, airspeed=0.9573643, roll=-0.05, pitch=-0.06, yaw=3.24, ch3percent=0.00, ch9out=0, ch10out=0, ch11out=0, ch12out=0, battery_voltage=0, battery_current=-1, lat=35.076697, lon=129.0921083, ch3out=1000}
[2025-03-18 11:37:03] {GCS_IP=192.168.1.4, timestamp=2025-03-18 11:37:02, systemid=1, alt=0.084, dist_traveled=null, wp_dist=0, dist_to_home=0.10171692688794604, vertical_speed=0.0073007876, ground_speed=0.021477045, wind_vel=0.0, airspeed=0.6687452, roll=-0.05, pitch=-0.06, yaw=3.21, ch3percent=0.00, ch9out=0, ch10out=0, ch11out=0, ch12out=0, battery_voltage=0, battery_current=-1, lat=35.076697, lon=129.0921083, ch3out=1000}
[2025-03-18 11:37:04] {GCS_IP=192.168.1.4, timestamp=2025-03-18 11:37:03, systemid=1, alt=0.067, dist_traveled=null, wp_dist=0, dist_to_home=0.10171692688794604, vertical_speed=0.0048412583, ground_speed=0.022581253, wind_vel=0.0, airspeed=0.21415564, roll=-0.05, pitch=-0.06, yaw=3.18, ch3percent=0.00, ch9out=0, ch10out=0, ch11out=0, ch12out=0, battery_voltage=0, battery_current=-1, lat=35.076697, lon=129.0921083, ch3out=1000}
[2025-03-18 11:37:05] {GCS_IP=192.168.1.4, timestamp=2025-03-18 11:37:04, systemid=1, alt=-0.006, dist_traveled=null, wp_dist=0, dist_to_home=0.10171692688794604, vertical_speed=0.0030633637, ground_speed=0.02320124, wind_vel=0.0, airspeed=0.6682766, roll=-0.05, pitch=-0.06, yaw=3.15, ch3percent=0.00, ch9out=0, ch10out=0, ch11out=0, ch12out=0, battery_voltage=0, battery_current=-1, lat=35.076697, lon=129.0921083, ch3out=1000}
[2025-03-18 11:37:06] {GCS_IP=192.168.1.4, timestamp=2025-03-18 11:37:05, systemid=1, alt=-0.028, dist_traveled=null, wp_dist=0, dist_to_home=0.10171692688794604, vertical_speed=-0.0013252666, ground_speed=0.023765538, wind_vel=0.0, airspeed=0.66262156, roll=-0.05, pitch=-0.07, yaw=3.12, ch3percent=0.00, ch9out=0, ch10out=0, ch11out=0, ch12out=0, battery_voltage=0, battery_current=-1, lat=35.076697, lon=129.0921083, ch3out=1000}
[2025-03-18 11:37:07] {GCS_IP=192.168.1.4, timestamp=2025-03-18 11:37:06, systemid=1, alt=-0.026, dist_traveled=null, wp_dist=0, dist_to_home=0.10171692688794604, vertical_speed=-7.782313E-4, ground_speed=0.02453568, wind_vel=0.0, airspeed=0.6705248, roll=-0.05, pitch=-0.07, yaw=3.10, ch3percent=0.00, ch9out=0, ch10out=0, ch11out=0, ch12out=0, battery_voltage=0, battery_current=-1, lat=35.076697, lon=129.0921083, ch3out=1000}
[2025-03-18 11:37:08] {GCS_IP=192.168.1.4, timestamp=2025-03-18 11:37:07, systemid=1, alt=-0.003, dist_traveled=null, wp_dist=0, dist_to_home=0.10171692688794604, vertical_speed=0.0025456848, ground_speed=0.025067648, wind_vel=0.0, airspeed=0.5706347, roll=-0.05, pitch=-0.07, yaw=3.06, ch3percent=0.00, ch9out=0, ch10out=0, ch11out=0, ch12out=0, battery_voltage=0, battery_current=-1, lat=35.076697, lon=129.0921083, ch3out=1000}
[2025-03-18 11:37:09] {GCS_IP=192.168.1.4, timestamp=2025-03-18 11:37:08, systemid=1, alt=-0.009, dist_traveled=null, wp_dist=0, dist_to_home=0.10171692688794604, vertical_speed=4.7551552E-4, ground_speed=0.025291547, wind_vel=0.0, airspeed=0.65416676, roll=-0.06, pitch=-0.07, yaw=3.03, ch3percent=0.00, ch9out=0, ch10out=0, ch11out=0, ch12out=0, battery_voltage=0, battery_current=-1, lat=35.076697, lon=129.0921083, ch3out=1000}
[2025-03-18 11:37:10] {GCS_IP=192.168.1.4, timestamp=2025-03-18 11:37:09, systemid=1, alt=-0.019, dist_traveled=null, wp_dist=0, dist_to_home=0.10171692688794604, vertical_speed=-0.001415349, ground_speed=0.025740545, wind_vel=0.0, airspeed=0.7399345, roll=-0.06, pitch=-0.07, yaw=3.00, ch3percent=0.00, ch9out=0, ch10out=0, ch11out=0, ch12out=0, battery_voltage=0, battery_current=-1, lat=35.076697, lon=129.0921083, ch3out=1000}
[2025-03-18 11:37:11] {GCS_IP=192.168.1.4, timestamp=2025-03-18 11:37:10, systemid=1, alt=-0.023, dist_traveled=null, wp_dist=0, dist_to_home=0.10171692688794604, vertical_speed=-0.0055738953, ground_speed=0.025994504, wind_vel=0.0, airspeed=0.57641196, roll=-0.06, pitch=-0.07, yaw=2.97, ch3percent=0.00, ch9out=0, ch10out=0, ch11out=0, ch12out=0, battery_voltage=0, battery_current=-1, lat=35.076697, lon=129.0921083, ch3out=1000}
[2025-03-18 11:37:12] {GCS_IP=192.168.1.4, timestamp=2025-03-18 11:37:11, systemid=1, alt=-0.051, dist_traveled=null, wp_dist=0, dist_to_home=0.10171692688794604, vertical_speed=-0.008729199, ground_speed=0.02643454, wind_vel=0.0, airspeed=0.8353516, roll=-0.06, pitch=-0.07, yaw=2.94, ch3percent=0.00, ch9out=0, ch10out=0, ch11out=0, ch12out=0, battery_voltage=0, battery_current=-1, lat=35.076697, lon=129.0921083, ch3out=1000}
[2025-03-18 11:37:13] {GCS_IP=192.168.1.4, timestamp=2025-03-18 11:37:12, systemid=1, alt=-0.054, dist_traveled=null, wp_dist=0, dist_to_home=0.10171692688794604, vertical_speed=-0.0077235964, ground_speed=0.026754556, wind_vel=0.0, airspeed=0.7566999, roll=-0.06, pitch=-0.07, yaw=2.91, ch3percent=0.00, ch9out=0, ch10out=0, ch11out=0, ch12out=0, battery_voltage=0, battery_current=-1, lat=35.076697, lon=129.0921083, ch3out=1000}
[2025-03-18 11:37:14] {GCS_IP=192.168.1.4, timestamp=2025-03-18 11:37:13, systemid=1, alt=-0.076, dist_traveled=null, wp_dist=0, dist_to_home=0.10171692688794604, vertical_speed=-0.009982162, ground_speed=0.027287725, wind_vel=0.0, airspeed=0.7746156, roll=-0.06, pitch=-0.07, yaw=2.88, ch3percent=0.00, ch9out=0, ch10out=0, ch11out=0, ch12out=0, battery_voltage=0, battery_current=-1, lat=35.076697, lon=129.0921083, ch3out=1000}
[2025-03-18 11:37:15] {GCS_IP=192.168.1.4, timestamp=2025-03-18 11:37:14, systemid=1, alt=-0.093, dist_traveled=null, wp_dist=0, dist_to_home=0.10171692688794604, vertical_speed=-0.010830247, ground_speed=0.027496215, wind_vel=0.0, airspeed=0.7266531, roll=-0.06, pitch=-0.07, yaw=2.85, ch3percent=0.00, ch9out=0, ch10out=0, ch11out=0, ch12out=0, battery_voltage=0, battery_current=-1, lat=35.076697, lon=129.0921083, ch3out=1000}
[2025-03-18 11:37:16] {GCS_IP=192.168.1.4, timestamp=2025-03-18 11:37:15, systemid=1, alt=-0.094, dist_traveled=null, wp_dist=0, dist_to_home=0.10171692688794604, vertical_speed=-0.011538314, ground_speed=0.02787192, wind_vel=0.0, airspeed=0.3950292, roll=-0.06, pitch=-0.07, yaw=2.82, ch3percent=0.00, ch9out=0, ch10out=0, ch11out=0, ch12out=0, battery_voltage=0, battery_current=-1, lat=35.076697, lon=129.0921083, ch3out=1000}
[2025-03-18 11:37:17] {GCS_IP=192.168.1.4, timestamp=2025-03-18 11:37:16, systemid=1, alt=0.019, dist_traveled=null, wp_dist=0, dist_to_home=0.10171692688794604, vertical_speed=-0.0063001234, ground_speed=0.027890904, wind_vel=0.0, airspeed=0.46582168, roll=-0.06, pitch=-0.07, yaw=2.79, ch3percent=0.00, ch9out=0, ch10out=0, ch11out=0, ch12out=0, battery_voltage=0, battery_current=-1, lat=35.076697, lon=129.0921083, ch3out=1000}
[2025-03-18 11:37:18] {GCS_IP=192.168.1.4, timestamp=2025-03-18 11:37:18, systemid=1, alt=0.04, dist_traveled=null, wp_dist=0, dist_to_home=0.10171692688794604, vertical_speed=-9.5271814E-4, ground_speed=0.028161606, wind_vel=0.0, airspeed=0.7249706, roll=-0.06, pitch=-0.07, yaw=2.75, ch3percent=0.00, ch9out=0, ch10out=0, ch11out=0, ch12out=0, battery_voltage=0, battery_current=-1, lat=35.076697, lon=129.0921083, ch3out=1000}
[2025-03-18 11:37:19] {GCS_IP=192.168.1.4, timestamp=2025-03-18 11:37:18, systemid=1, alt=0.057, dist_traveled=null, wp_dist=0, dist_to_home=0.10171692688794604, vertical_speed=0.002394732, ground_speed=0.027924769, wind_vel=0.0, airspeed=0.18756214, roll=-0.06, pitch=-0.07, yaw=2.73, ch3percent=0.00, ch9out=0, ch10out=0, ch11out=0, ch12out=0, battery_voltage=0, battery_current=-1, lat=35.076697, lon=129.0921083, ch3out=1000}
[2025-03-18 11:37:20] {GCS_IP=192.168.1.4, timestamp=2025-03-18 11:37:19, systemid=1, alt=0.079, dist_traveled=null, wp_dist=0, dist_to_home=0.10171692688794604, vertical_speed=0.005246344, ground_speed=0.02792854, wind_vel=0.0, airspeed=0.3100867, roll=-0.06, pitch=-0.07, yaw=2.70, ch3percent=0.00, ch9out=0, ch10out=0, ch11out=0, ch12out=0, battery_voltage=0, battery_current=-1, lat=35.076697, lon=129.0921083, ch3out=1000}
[2025-03-18 11:37:21] {GCS_IP=192.168.1.4, timestamp=2025-03-18 11:37:20, systemid=1, alt=0.082, dist_traveled=null, wp_dist=0, dist_to_home=0.10171692688794604, vertical_speed=0.005232289, ground_speed=0.027645797, wind_vel=0.0, airspeed=0.6508592, roll=-0.06, pitch=-0.07, yaw=2.67, ch3percent=0.00, ch9out=0, ch10out=0, ch11out=0, ch12out=0, battery_voltage=0, battery_current=-1, lat=35.076697, lon=129.0921083, ch3out=1000}
[2025-03-18 11:37:22] {GCS_IP=192.168.1.4, timestamp=2025-03-18 11:37:21, systemid=1, alt=0.077, dist_traveled=null, wp_dist=0, dist_to_home=0.10171692688794604, vertical_speed=0.0070640077, ground_speed=0.02765214, wind_vel=0.0, airspeed=0.6503896, roll=-0.06, pitch=-0.07, yaw=2.64, ch3percent=0.00, ch9out=0, ch10out=0, ch11out=0, ch12out=0, battery_voltage=0, battery_current=-1, lat=35.076697, lon=129.0921083, ch3out=1000}
[2025-03-18 11:37:23] {GCS_IP=192.168.1.4, timestamp=2025-03-18 11:37:23, systemid=1, alt=0.007, dist_traveled=null, wp_dist=0, dist_to_home=0.10171692688794604, vertical_speed=0.0068150703, ground_speed=0.028369678, wind_vel=0.0, airspeed=0.69476265, roll=-0.06, pitch=-0.07, yaw=2.61, ch3percent=0.00, ch9out=0, ch10out=0, ch11out=0, ch12out=0, battery_voltage=0, battery_current=-1, lat=35.076697, lon=129.0921083, ch3out=1000}
[2025-03-18 11:37:24] {GCS_IP=192.168.1.4, timestamp=2025-03-18 11:37:24, systemid=1, alt=-0.006, dist_traveled=null, wp_dist=0, dist_to_home=0.10171692688794604, vertical_speed=0.0040077195, ground_speed=0.028591074, wind_vel=0.0, airspeed=0.63427144, roll=-0.06, pitch=-0.07, yaw=2.58, ch3percent=0.00, ch9out=0, ch10out=0, ch11out=0, ch12out=0, battery_voltage=0, battery_current=-1, lat=35.076697, lon=129.0921083, ch3out=1000}
[2025-03-18 11:37:25] {GCS_IP=192.168.1.4, timestamp=2025-03-18 11:37:24, systemid=1, alt=-0.029, dist_traveled=null, wp_dist=0, dist_to_home=0.10171692688794604, vertical_speed=-6.4321223E-4, ground_speed=0.028580151, wind_vel=0.0, airspeed=0.7769429, roll=-0.06, pitch=-0.07, yaw=2.56, ch3percent=0.00, ch9out=0, ch10out=0, ch11out=0, ch12out=0, battery_voltage=0, battery_current=-1, lat=35.076697, lon=129.0921083, ch3out=1000}
[2025-03-18 11:37:26] {GCS_IP=192.168.1.4, timestamp=2025-03-18 11:37:26, systemid=1, alt=-0.064, dist_traveled=null, wp_dist=0, dist_to_home=0.10373227092921733, vertical_speed=-0.0057961564, ground_speed=0.029161107, wind_vel=0.0, airspeed=0.35804877, roll=-0.06, pitch=-0.08, yaw=2.52, ch3percent=0.00, ch9out=0, ch10out=0, ch11out=0, ch12out=0, battery_voltage=0, battery_current=-1, lat=35.076697, lon=129.0921082, ch3out=1000}
[2025-03-18 11:37:27] {GCS_IP=192.168.1.4, timestamp=2025-03-18 11:37:27, systemid=1, alt=-0.064, dist_traveled=null, wp_dist=0, dist_to_home=0.10373227092921733, vertical_speed=-0.005071921, ground_speed=0.029225184, wind_vel=0.0, airspeed=0.3903294, roll=-0.06, pitch=-0.08, yaw=2.49, ch3percent=0.00, ch9out=0, ch10out=0, ch11out=0, ch12out=0, battery_voltage=0, battery_current=-1, lat=35.076697, lon=129.0921082, ch3out=1000}
[2025-03-18 11:37:28] {GCS_IP=192.168.1.4, timestamp=2025-03-18 11:37:27, systemid=1, alt=-0.061, dist_traveled=null, wp_dist=0, dist_to_home=0.10373227092921733, vertical_speed=-0.0059402697, ground_speed=0.029273503, wind_vel=0.0, airspeed=0.6087126, roll=-0.06, pitch=-0.08, yaw=2.47, ch3percent=0.00, ch9out=0, ch10out=0, ch11out=0, ch12out=0, battery_voltage=0, battery_current=-1, lat=35.076697, lon=129.0921082, ch3out=1000}
[2025-03-18 11:37:29] {GCS_IP=192.168.1.4, timestamp=2025-03-18 11:37:28, systemid=1, alt=-0.032, dist_traveled=null, wp_dist=0, dist_to_home=0.10373227092921733, vertical_speed=-0.011061469, ground_speed=0.029929977, wind_vel=0.0, airspeed=0.6012677, roll=-0.07, pitch=-0.08, yaw=2.45, ch3percent=0.00, ch9out=0, ch10out=0, ch11out=0, ch12out=0, battery_voltage=0, battery_current=-1, lat=35.076697, lon=129.0921082, ch3out=1000}
[2025-03-18 11:37:30] {GCS_IP=192.168.1.4, timestamp=2025-03-18 11:37:30, systemid=1, alt=-0.064, dist_traveled=null, wp_dist=0, dist_to_home=0.10373227092921733, vertical_speed=-0.013184637, ground_speed=0.03035243, wind_vel=0.0, airspeed=0.912347, roll=-0.07, pitch=-0.08, yaw=2.41, ch3percent=0.00, ch9out=0, ch10out=0, ch11out=0, ch12out=0, battery_voltage=0, battery_current=-1, lat=35.076697, lon=129.0921082, ch3out=1000}
[2025-03-18 11:37:31] {GCS_IP=192.168.1.4, timestamp=2025-03-18 11:37:31, systemid=1, alt=-0.093, dist_traveled=null, wp_dist=0, dist_to_home=0.10373227092921733, vertical_speed=-0.016415626, ground_speed=0.030599145, wind_vel=0.0, airspeed=0.5981363, roll=-0.07, pitch=-0.08, yaw=2.39, ch3percent=0.00, ch9out=0, ch10out=0, ch11out=0, ch12out=0, battery_voltage=0, battery_current=-1, lat=35.076697, lon=129.0921082, ch3out=1000}
[2025-03-18 11:37:32] {GCS_IP=192.168.1.4, timestamp=2025-03-18 11:37:31, systemid=1, alt=-0.13, dist_traveled=null, wp_dist=0, dist_to_home=0.10373227092921733, vertical_speed=-0.01806661, ground_speed=0.030512165, wind_vel=0.0, airspeed=0.63223696, roll=-0.07, pitch=-0.08, yaw=2.37, ch3percent=0.00, ch9out=0, ch10out=0, ch11out=0, ch12out=0, battery_voltage=0, battery_current=-1, lat=35.076697, lon=129.0921082, ch3out=1000}
[2025-03-18 11:37:33] {GCS_IP=192.168.1.4, timestamp=2025-03-18 11:37:33, systemid=1, alt=-0.123, dist_traveled=null, wp_dist=0, dist_to_home=0.10373227092921733, vertical_speed=-0.012201415, ground_speed=0.03038014, wind_vel=0.0, airspeed=0.16936246, roll=-0.07, pitch=-0.08, yaw=2.33, ch3percent=0.00, ch9out=0, ch10out=0, ch11out=0, ch12out=0, battery_voltage=0, battery_current=-1, lat=35.076697, lon=129.0921082, ch3out=1000}
[2025-03-18 11:37:34] {GCS_IP=192.168.1.4, timestamp=2025-03-18 11:37:33, systemid=1, alt=-0.109, dist_traveled=null, wp_dist=0, dist_to_home=0.10373227092921733, vertical_speed=-0.012466508, ground_speed=0.03058575, wind_vel=0.0, airspeed=0.38282225, roll=-0.07, pitch=-0.08, yaw=2.32, ch3percent=0.00, ch9out=0, ch10out=0, ch11out=0, ch12out=0, battery_voltage=0, battery_current=-1, lat=35.076697, lon=129.0921082, ch3out=1000}
[2025-03-18 11:37:35] {GCS_IP=192.168.1.4, timestamp=2025-03-18 11:37:35, systemid=1, alt=-0.034, dist_traveled=null, wp_dist=0, dist_to_home=0.10373227092921733, vertical_speed=-0.016857719, ground_speed=0.030943383, wind_vel=0.0, airspeed=0.5999286, roll=-0.07, pitch=-0.08, yaw=2.28, ch3percent=0.00, ch9out=0, ch10out=0, ch11out=0, ch12out=0, battery_voltage=0, battery_current=-1, lat=35.076697, lon=129.0921082, ch3out=1000}
[2025-03-18 11:37:36] {GCS_IP=192.168.1.4, timestamp=2025-03-18 11:37:36, systemid=1, alt=-0.073, dist_traveled=null, wp_dist=0, dist_to_home=0.10373227092921733, vertical_speed=-0.019525182, ground_speed=0.030978605, wind_vel=0.0, airspeed=0.66574126, roll=-0.07, pitch=-0.08, yaw=2.26, ch3percent=0.00, ch9out=0, ch10out=0, ch11out=0, ch12out=0, battery_voltage=0, battery_current=-1, lat=35.076697, lon=129.0921082, ch3out=1000}
[2025-03-18 11:37:37] {GCS_IP=192.168.1.4, timestamp=2025-03-18 11:37:37, systemid=1, alt=-0.107, dist_traveled=null, wp_dist=0, dist_to_home=0.10373227092921733, vertical_speed=-0.019520788, ground_speed=0.031012781, wind_vel=0.0, airspeed=0.73566484, roll=-0.07, pitch=-0.08, yaw=2.23, ch3percent=0.00, ch9out=0, ch10out=0, ch11out=0, ch12out=0, battery_voltage=0, battery_current=-1, lat=35.076697, lon=129.0921082, ch3out=1000}
[2025-03-18 11:37:38] {GCS_IP=192.168.1.4, timestamp=2025-03-18 11:37:37, systemid=1, alt=-0.123, dist_traveled=null, wp_dist=0, dist_to_home=0.10373227092921733, vertical_speed=-0.017635519, ground_speed=0.030891364, wind_vel=0.0, airspeed=0.6810728, roll=-0.07, pitch=-0.08, yaw=2.22, ch3percent=0.00, ch9out=0, ch10out=0, ch11out=0, ch12out=0, battery_voltage=0, battery_current=-1, lat=35.076697, lon=129.0921082, ch3out=1000}
[2025-03-18 11:37:39] {GCS_IP=192.168.1.4, timestamp=2025-03-18 11:37:39, systemid=1, alt=-0.134, dist_traveled=null, wp_dist=0, dist_to_home=0.10373227092921733, vertical_speed=-0.014452682, ground_speed=0.031089764, wind_vel=0.0, airspeed=0.16985671, roll=-0.07, pitch=-0.08, yaw=2.19, ch3percent=0.00, ch9out=0, ch10out=0, ch11out=0, ch12out=0, battery_voltage=0, battery_current=-1, lat=35.076697, lon=129.0921082, ch3out=1000}
[2025-03-18 11:37:40] {GCS_IP=192.168.1.4, timestamp=2025-03-18 11:37:40, systemid=1, alt=-0.121, dist_traveled=null, wp_dist=0, dist_to_home=0.10373227092921733, vertical_speed=-0.012489859, ground_speed=0.031141277, wind_vel=0.0, airspeed=0.35368425, roll=-0.07, pitch=-0.08, yaw=2.16, ch3percent=0.00, ch9out=0, ch10out=0, ch11out=0, ch12out=0, battery_voltage=0, battery_current=-1, lat=35.076697, lon=129.0921082, ch3out=1000}
[2025-03-18 11:37:41] {GCS_IP=192.168.1.4, timestamp=2025-03-18 11:37:41, systemid=1, alt=0.021, dist_traveled=null, wp_dist=0, dist_to_home=0.10373227092921733, vertical_speed=-0.0035466396, ground_speed=0.031003045, wind_vel=0.0, airspeed=0.70647615, roll=-0.07, pitch=-0.08, yaw=2.14, ch3percent=0.00, ch9out=0, ch10out=0, ch11out=0, ch12out=0, battery_voltage=0, battery_current=-1, lat=35.076697, lon=129.0921082, ch3out=1000}
[2025-03-18 11:37:42] {GCS_IP=192.168.1.4, timestamp=2025-03-18 11:37:42, systemid=1, alt=0.07, dist_traveled=null, wp_dist=0, dist_to_home=0.10373227092921733, vertical_speed=0.0045246077, ground_speed=0.031068487, wind_vel=0.0, airspeed=0.76177466, roll=-0.07, pitch=-0.08, yaw=2.12, ch3percent=0.00, ch9out=0, ch10out=0, ch11out=0, ch12out=0, battery_voltage=0, battery_current=-1, lat=35.076697, lon=129.0921082, ch3out=1000}
[2025-03-18 11:37:43] {GCS_IP=192.168.1.4, timestamp=2025-03-18 11:37:43, systemid=1, alt=0.096, dist_traveled=null, wp_dist=0, dist_to_home=0.10373227092921733, vertical_speed=0.0085753985, ground_speed=0.031029563, wind_vel=0.0, airspeed=0.8753437, roll=-0.07, pitch=-0.08, yaw=2.09, ch3percent=0.00, ch9out=0, ch10out=0, ch11out=0, ch12out=0, battery_voltage=0, battery_current=-1, lat=35.076697, lon=129.0921082, ch3out=1000}
[2025-03-18 11:46:32] {GCS_IP=192.168.1.4, timestamp=2025-03-18 11:46:31, systemid=1, alt=-0.149, dist_traveled=null, wp_dist=0, dist_to_home=0.06733470411585789, vertical_speed=-0.017401528, ground_speed=0.03149562, wind_vel=0.0, airspeed=0.82406884, roll=0.08, pitch=0.07, yaw=3.85, ch3percent=0.00, ch9out=0, ch10out=0, ch11out=0, ch12out=0, battery_voltage=0, battery_current=-1, lat=35.0766967, lon=129.0921086, ch3out=1000}
[2025-03-18 11:46:33] {GCS_IP=192.168.1.4, timestamp=2025-03-18 11:46:31, systemid=1, alt=-0.149, dist_traveled=null, wp_dist=0, dist_to_home=0.06733470411585789, vertical_speed=-0.017401528, ground_speed=0.03149562, wind_vel=0.0, airspeed=0.82406884, roll=0.08, pitch=0.07, yaw=3.85, ch3percent=0.00, ch9out=0, ch10out=0, ch11out=0, ch12out=0, battery_voltage=0, battery_current=-1, lat=35.0766967, lon=129.0921086, ch3out=1000, waypoints=[]}
[2025-03-18 11:46:34] {GCS_IP=192.168.1.4, timestamp=2025-03-18 11:46:31, systemid=1, alt=-0.149, dist_traveled=null, wp_dist=0, dist_to_home=0.06733470411585789, vertical_speed=-0.017401528, ground_speed=0.03149562, wind_vel=0.0, airspeed=0.82406884, roll=0.08, pitch=0.07, yaw=3.85, ch3percent=0.00, ch9out=0, ch10out=0, ch11out=0, ch12out=0, battery_voltage=0, battery_current=-1, lat=35.0766967, lon=129.0921086, ch3out=1000, waypoints=[]}
[2025-03-18 11:46:35] {GCS_IP=192.168.1.4, timestamp=2025-03-18 11:46:35, systemid=1, alt=0.002, dist_traveled=null, wp_dist=0, dist_to_home=0.06733470411585789, vertical_speed=-0.011027184, ground_speed=0.026529528, wind_vel=0.0, airspeed=0.40403828, roll=0.06, pitch=0.05, yaw=3.83, ch3percent=0.00, ch9out=0, ch10out=0, ch11out=0, ch12out=0, battery_voltage=0, battery_current=-1, lat=35.0766967, lon=129.0921086, ch3out=1000, waypoints=[{seq=0, lat=35.0766967, lon=129.0921086, alt=43.78}, {seq=1, lat=0.0, lon=0.0, alt=30.0}, {seq=2, lat=35.074127, lon=129.092103, alt=30.0}, {seq=3, lat=35.068399, lon=129.089666, alt=30.0}, {seq=4, lat=35.066504, lon=129.091809, alt=30.0}, {seq=5, lat=35.06537, lon=129.093095, alt=30.0}, {seq=6, lat=35.064163, lon=129.094466, alt=30.0}, {seq=7, lat=35.062586, lon=129.092356, alt=30.0}, {seq=8, lat=35.061974, lon=129.091509, alt=30.0}, {seq=9, lat=35.06322, lon=129.090181, alt=30.0}, {seq=10, lat=35.064955, lon=129.088335, alt=30.0}, {seq=11, lat=35.066579, lon=129.086606, alt=30.0}, {seq=12, lat=35.067136, lon=129.086013, alt=30.0}, {seq=13, lat=35.074309, lon=129.091761, alt=30.0}, {seq=14, lat=0.0, lon=0.0, alt=0.0}]}
[2025-03-18 11:46:36] {GCS_IP=192.168.1.4, timestamp=2025-03-18 11:46:36, systemid=1, alt=0.012, dist_traveled=null, wp_dist=0, dist_to_home=0.06733470411585789, vertical_speed=-0.004650757, ground_speed=0.023924723, wind_vel=0.0, airspeed=0.25199956, roll=0.05, pitch=0.04, yaw=3.82, ch3percent=0.00, ch9out=0, ch10out=0, ch11out=0, ch12out=0, battery_voltage=0, battery_current=-1, lat=35.0766967, lon=129.0921086, ch3out=1000, waypoints=[{seq=0, lat=35.0766967, lon=129.0921086, alt=43.78}, {seq=1, lat=0.0, lon=0.0, alt=30.0}, {seq=2, lat=35.074127, lon=129.092103, alt=30.0}, {seq=3, lat=35.068399, lon=129.089666, alt=30.0}, {seq=4, lat=35.066504, lon=129.091809, alt=30.0}, {seq=5, lat=35.06537, lon=129.093095, alt=30.0}, {seq=6, lat=35.064163, lon=129.094466, alt=30.0}, {seq=7, lat=35.062586, lon=129.092356, alt=30.0}, {seq=8, lat=35.061974, lon=129.091509, alt=30.0}, {seq=9, lat=35.06322, lon=129.090181, alt=30.0}, {seq=10, lat=35.064955, lon=129.088335, alt=30.0}, {seq=11, lat=35.066579, lon=129.086606, alt=30.0}, {seq=12, lat=35.067136, lon=129.086013, alt=30.0}, {seq=13, lat=35.074309, lon=129.091761, alt=30.0}, {seq=14, lat=0.0, lon=0.0, alt=0.0}]}
[2025-03-18 11:46:37] {GCS_IP=192.168.1.4, timestamp=2025-03-18 11:46:37, systemid=1, alt=0.027, dist_traveled=null, wp_dist=0, dist_to_home=0.06733470411585789, vertical_speed=-0.0015367406, ground_speed=0.020570887, wind_vel=0.0, airspeed=0.6176589, roll=0.05, pitch=0.03, yaw=3.81, ch3percent=0.00, ch9out=0, ch10out=0, ch11out=0, ch12out=0, battery_voltage=0, battery_current=-1, lat=35.0766967, lon=129.0921086, ch3out=1000, waypoints=[{seq=0, lat=35.0766967, lon=129.0921086, alt=43.78}, {seq=1, lat=0.0, lon=0.0, alt=30.0}, {seq=2, lat=35.074127, lon=129.092103, alt=30.0}, {seq=3, lat=35.068399, lon=129.089666, alt=30.0}, {seq=4, lat=35.066504, lon=129.091809, alt=30.0}, {seq=5, lat=35.06537, lon=129.093095, alt=30.0}, {seq=6, lat=35.064163, lon=129.094466, alt=30.0}, {seq=7, lat=35.062586, lon=129.092356, alt=30.0}, {seq=8, lat=35.061974, lon=129.091509, alt=30.0}, {seq=9, lat=35.06322, lon=129.090181, alt=30.0}, {seq=10, lat=35.064955, lon=129.088335, alt=30.0}, {seq=11, lat=35.066579, lon=129.086606, alt=30.0}, {seq=12, lat=35.067136, lon=129.086013, alt=30.0}, {seq=13, lat=35.074309, lon=129.091761, alt=30.0}, {seq=14, lat=0.0, lon=0.0, alt=0.0}]}
[2025-03-18 11:46:38] {GCS_IP=192.168.1.4, timestamp=2025-03-18 11:46:38, systemid=1, alt=0.026, dist_traveled=null, wp_dist=0, dist_to_home=0.06733470411585789, vertical_speed=-2.2502035E-4, ground_speed=0.018363368, wind_vel=0.0, airspeed=0.35927835, roll=0.04, pitch=0.03, yaw=3.80, ch3percent=0.00, ch9out=0, ch10out=0, ch11out=0, ch12out=0, battery_voltage=0, battery_current=-1, lat=35.0766967, lon=129.0921086, ch3out=1000, waypoints=[{seq=0, lat=35.0766967, lon=129.0921086, alt=43.78}, {seq=1, lat=0.0, lon=0.0, alt=30.0}, {seq=2, lat=35.074127, lon=129.092103, alt=30.0}, {seq=3, lat=35.068399, lon=129.089666, alt=30.0}, {seq=4, lat=35.066504, lon=129.091809, alt=30.0}, {seq=5, lat=35.06537, lon=129.093095, alt=30.0}, {seq=6, lat=35.064163, lon=129.094466, alt=30.0}, {seq=7, lat=35.062586, lon=129.092356, alt=30.0}, {seq=8, lat=35.061974, lon=129.091509, alt=30.0}, {seq=9, lat=35.06322, lon=129.090181, alt=30.0}, {seq=10, lat=35.064955, lon=129.088335, alt=30.0}, {seq=11, lat=35.066579, lon=129.086606, alt=30.0}, {seq=12, lat=35.067136, lon=129.086013, alt=30.0}, {seq=13, lat=35.074309, lon=129.091761, alt=30.0}, {seq=14, lat=0.0, lon=0.0, alt=0.0}]}
[2025-03-18 11:46:39] {GCS_IP=192.168.1.4, timestamp=2025-03-18 11:46:39, systemid=1, alt=0.027, dist_traveled=null, wp_dist=0, dist_to_home=0.06733470411585789, vertical_speed=7.367203E-4, ground_speed=0.015086171, wind_vel=0.0, airspeed=0.46777046, roll=0.03, pitch=0.02, yaw=3.78, ch3percent=0.00, ch9out=0, ch10out=0, ch11out=0, ch12out=0, battery_voltage=0, battery_current=-1, lat=35.0766967, lon=129.0921086, ch3out=1000, waypoints=[{seq=0, lat=35.0766967, lon=129.0921086, alt=43.78}, {seq=1, lat=0.0, lon=0.0, alt=30.0}, {seq=2, lat=35.074127, lon=129.092103, alt=30.0}, {seq=3, lat=35.068399, lon=129.089666, alt=30.0}, {seq=4, lat=35.066504, lon=129.091809, alt=30.0}, {seq=5, lat=35.06537, lon=129.093095, alt=30.0}, {seq=6, lat=35.064163, lon=129.094466, alt=30.0}, {seq=7, lat=35.062586, lon=129.092356, alt=30.0}, {seq=8, lat=35.061974, lon=129.091509, alt=30.0}, {seq=9, lat=35.06322, lon=129.090181, alt=30.0}, {seq=10, lat=35.064955, lon=129.088335, alt=30.0}, {seq=11, lat=35.066579, lon=129.086606, alt=30.0}, {seq=12, lat=35.067136, lon=129.086013, alt=30.0}, {seq=13, lat=35.074309, lon=129.091761, alt=30.0}, {seq=14, lat=0.0, lon=0.0, alt=0.0}]}
[2025-03-18 11:46:40] {GCS_IP=192.168.1.4, timestamp=2025-03-18 11:46:40, systemid=1, alt=0.007, dist_traveled=null, wp_dist=0, dist_to_home=0.07836659314247994, vertical_speed=0.003217475, ground_speed=0.011112688, wind_vel=0.0, airspeed=0.76273227, roll=0.03, pitch=0.01, yaw=3.76, ch3percent=0.00, ch9out=0, ch10out=0, ch11out=0, ch12out=0, battery_voltage=0, battery_current=-1, lat=35.0766968, lon=129.0921086, ch3out=1000, waypoints=[{seq=0, lat=35.0766967, lon=129.0921086, alt=43.78}, {seq=1, lat=0.0, lon=0.0, alt=30.0}, {seq=2, lat=35.074127, lon=129.092103, alt=30.0}, {seq=3, lat=35.068399, lon=129.089666, alt=30.0}, {seq=4, lat=35.066504, lon=129.091809, alt=30.0}, {seq=5, lat=35.06537, lon=129.093095, alt=30.0}, {seq=6, lat=35.064163, lon=129.094466, alt=30.0}, {seq=7, lat=35.062586, lon=129.092356, alt=30.0}, {seq=8, lat=35.061974, lon=129.091509, alt=30.0}, {seq=9, lat=35.06322, lon=129.090181, alt=30.0}, {seq=10, lat=35.064955, lon=129.088335, alt=30.0}, {seq=11, lat=35.066579, lon=129.086606, alt=30.0}, {seq=12, lat=35.067136, lon=129.086013, alt=30.0}, {seq=13, lat=35.074309, lon=129.091761, alt=30.0}, {seq=14, lat=0.0, lon=0.0, alt=0.0}]}
[2025-03-18 11:46:41] {GCS_IP=192.168.1.4, timestamp=2025-03-18 11:46:41, systemid=1, alt=0.031, dist_traveled=null, wp_dist=0, dist_to_home=0.07783644877070796, vertical_speed=0.006964805, ground_speed=0.008278387, wind_vel=0.0, airspeed=0.45071056, roll=0.02, pitch=0.01, yaw=3.75, ch3percent=0.00, ch9out=0, ch10out=0, ch11out=0, ch12out=0, battery_voltage=0, battery_current=-1, lat=35.0766968, lon=129.0921085, ch3out=1000, waypoints=[{seq=0, lat=35.0766967, lon=129.0921086, alt=43.78}, {seq=1, lat=0.0, lon=0.0, alt=30.0}, {seq=2, lat=35.074127, lon=129.092103, alt=30.0}, {seq=3, lat=35.068399, lon=129.089666, alt=30.0}, {seq=4, lat=35.066504, lon=129.091809, alt=30.0}, {seq=5, lat=35.06537, lon=129.093095, alt=30.0}, {seq=6, lat=35.064163, lon=129.094466, alt=30.0}, {seq=7, lat=35.062586, lon=129.092356, alt=30.0}, {seq=8, lat=35.061974, lon=129.091509, alt=30.0}, {seq=9, lat=35.06322, lon=129.090181, alt=30.0}, {seq=10, lat=35.064955, lon=129.088335, alt=30.0}, {seq=11, lat=35.066579, lon=129.086606, alt=30.0}, {seq=12, lat=35.067136, lon=129.086013, alt=30.0}, {seq=13, lat=35.074309, lon=129.091761, alt=30.0}, {seq=14, lat=0.0, lon=0.0, alt=0.0}]}
