[2025-03-12 09:56:37] {GCS_IP=172.24.54.249, timestamp=2025-03-12 09:56:36, systemid=1, alt=0.003, dist_traveled=null, wp_dist=0, dist_to_home=6.662452702721682, vertical_speed=-0.004967117, ground_speed=0.024858829, wind_vel=0.0, airspeed=0.5011967, roll=0.06, pitch=0.05, yaw=2.81, ch3percent=0.00, ch9out=0, ch10out=0, ch11out=0, ch12out=0, battery_voltage=0, battery_current=-1, lat=35.0767269, lon=129.0920457, ch3out=1000}
[2025-03-12 09:56:38] {GCS_IP=172.24.54.249, timestamp=2025-03-12 09:56:36, systemid=1, alt=0.003, dist_traveled=null, wp_dist=0, dist_to_home=6.662452702721682, vertical_speed=-0.004967117, ground_speed=0.024858829, wind_vel=0.0, airspeed=0.5011967, roll=0.06, pitch=0.05, yaw=2.81, ch3percent=0.00, ch9out=0, ch10out=0, ch11out=0, ch12out=0, battery_voltage=0, battery_current=-1, lat=35.0767269, lon=129.0920457, ch3out=1000}
[2025-03-12 09:56:39] {GCS_IP=172.24.54.249, timestamp=2025-03-12 09:56:39, systemid=1, alt=0.069, dist_traveled=null, wp_dist=0, dist_to_home=6.662452702721682, vertical_speed=0.007391399, ground_speed=0.025715362, wind_vel=0.0, airspeed=0.94985145, roll=0.07, pitch=0.06, yaw=2.83, ch3percent=0.00, ch9out=0, ch10out=0, ch11out=0, ch12out=0, battery_voltage=0, battery_current=-1, lat=35.0767269, lon=129.0920457, ch3out=1000}
[2025-03-12 09:56:40] {GCS_IP=172.24.54.249, timestamp=2025-03-12 09:56:40, systemid=1, alt=0.082, dist_traveled=null, wp_dist=0, dist_to_home=6.662452702721682, vertical_speed=0.009069624, ground_speed=0.02601507, wind_vel=0.0, airspeed=0.5541176, roll=0.07, pitch=0.06, yaw=2.83, ch3percent=0.00, ch9out=0, ch10out=0, ch11out=0, ch12out=0, battery_voltage=0, battery_current=-1, lat=35.0767269, lon=129.0920457, ch3out=1000}
[2025-03-12 09:56:41] {GCS_IP=172.24.54.249, timestamp=2025-03-12 09:56:41, systemid=1, alt=0.098, dist_traveled=null, wp_dist=0, dist_to_home=6.662452702721682, vertical_speed=0.011111974, ground_speed=0.026372094, wind_vel=0.0, airspeed=0.74274653, roll=0.07, pitch=0.06, yaw=2.84, ch3percent=0.00, ch9out=0, ch10out=0, ch11out=0, ch12out=0, battery_voltage=0, battery_current=-1, lat=35.0767269, lon=129.0920457, ch3out=1000}
[2025-03-12 09:56:42] {GCS_IP=172.24.54.249, timestamp=2025-03-12 09:56:42, systemid=1, alt=-0.003, dist_traveled=null, wp_dist=0, dist_to_home=6.662452702721682, vertical_speed=0.008162119, ground_speed=0.026616089, wind_vel=0.0, airspeed=0.6436374, roll=0.07, pitch=0.06, yaw=2.85, ch3percent=0.00, ch9out=0, ch10out=0, ch11out=0, ch12out=0, battery_voltage=0, battery_current=-1, lat=35.0767269, lon=129.0920457, ch3out=1000}
[2025-03-12 09:56:43] {GCS_IP=172.24.54.249, timestamp=2025-03-12 09:56:43, systemid=1, alt=-0.004, dist_traveled=null, wp_dist=0, dist_to_home=6.662452702721682, vertical_speed=0.007756618, ground_speed=0.02672502, wind_vel=0.0, airspeed=0.7218718, roll=0.07, pitch=0.06, yaw=2.85, ch3percent=0.00, ch9out=0, ch10out=0, ch11out=0, ch12out=0, battery_voltage=0, battery_current=-1, lat=35.0767269, lon=129.0920457, ch3out=1000}
[2025-03-12 09:56:44] {GCS_IP=172.24.54.249, timestamp=2025-03-12 09:56:44, systemid=1, alt=-0.006, dist_traveled=null, wp_dist=0, dist_to_home=6.662452702721682, vertical_speed=0.0062724883, ground_speed=0.026838003, wind_vel=0.0, airspeed=0.44455823, roll=0.07, pitch=0.06, yaw=2.86, ch3percent=0.00, ch9out=0, ch10out=0, ch11out=0, ch12out=0, battery_voltage=0, battery_current=-1, lat=35.0767269, lon=129.0920457, ch3out=1000}
[2025-03-12 09:56:45] {GCS_IP=172.24.54.249, timestamp=2025-03-12 09:56:44, systemid=1, alt=-0.006, dist_traveled=null, wp_dist=0, dist_to_home=6.662452702721682, vertical_speed=0.00592139, ground_speed=0.026911503, wind_vel=0.0, airspeed=0.8307375, roll=0.07, pitch=0.06, yaw=2.87, ch3percent=0.00, ch9out=0, ch10out=0, ch11out=0, ch12out=0, battery_voltage=0, battery_current=-1, lat=35.0767269, lon=129.0920457, ch3out=1000}
[2025-03-12 09:56:46] {GCS_IP=172.24.54.249, timestamp=2025-03-12 09:56:46, systemid=1, alt=-0.014, dist_traveled=null, wp_dist=0, dist_to_home=6.662452702721682, vertical_speed=0.0036315096, ground_speed=0.027659466, wind_vel=0.0, airspeed=0.8556035, roll=0.07, pitch=0.06, yaw=2.88, ch3percent=0.00, ch9out=0, ch10out=0, ch11out=0, ch12out=0, battery_voltage=0, battery_current=-1, lat=35.0767269, lon=129.0920457, ch3out=1000}
[2025-03-12 09:56:47] {GCS_IP=172.24.54.249, timestamp=2025-03-12 09:56:47, systemid=1, alt=-0.012, dist_traveled=null, wp_dist=0, dist_to_home=6.662452702721682, vertical_speed=0.0031762982, ground_speed=0.028249279, wind_vel=0.0, airspeed=0.7598572, roll=0.07, pitch=0.06, yaw=2.88, ch3percent=0.00, ch9out=0, ch10out=0, ch11out=0, ch12out=0, battery_voltage=0, battery_current=-1, lat=35.0767269, lon=129.0920457, ch3out=1000}
[2025-03-12 09:56:48] {GCS_IP=172.24.54.249, timestamp=2025-03-12 09:56:48, systemid=1, alt=0.0, dist_traveled=null, wp_dist=0, dist_to_home=6.662452702721682, vertical_speed=0.0027236112, ground_speed=0.028553925, wind_vel=0.0, airspeed=0.3214478, roll=0.07, pitch=0.06, yaw=2.89, ch3percent=0.00, ch9out=0, ch10out=0, ch11out=0, ch12out=0, battery_voltage=0, battery_current=-1, lat=35.0767269, lon=129.0920457, ch3out=1000}
[2025-03-12 09:56:49] {GCS_IP=172.24.54.249, timestamp=2025-03-12 09:56:49, systemid=1, alt=-0.029, dist_traveled=null, wp_dist=0, dist_to_home=6.662452702721682, vertical_speed=-0.0019864868, ground_speed=0.028769469, wind_vel=0.0, airspeed=0.5215214, roll=0.07, pitch=0.06, yaw=2.90, ch3percent=0.00, ch9out=0, ch10out=0, ch11out=0, ch12out=0, battery_voltage=0, battery_current=-1, lat=35.0767269, lon=129.0920457, ch3out=1000}
[2025-03-12 09:56:50] {GCS_IP=172.24.54.249, timestamp=2025-03-12 09:56:50, systemid=1, alt=-0.045, dist_traveled=null, wp_dist=0, dist_to_home=6.654648697936874, vertical_speed=-0.003969591, ground_speed=0.029105801, wind_vel=0.0, airspeed=0.45909846, roll=0.07, pitch=0.06, yaw=2.91, ch3percent=0.00, ch9out=0, ch10out=0, ch11out=0, ch12out=0, battery_voltage=0, battery_current=-1, lat=35.0767269, lon=129.0920458, ch3out=1000}
[2025-03-12 09:56:51] {GCS_IP=172.24.54.249, timestamp=2025-03-12 09:56:51, systemid=1, alt=-0.065, dist_traveled=null, wp_dist=0, dist_to_home=6.654648697936874, vertical_speed=-0.006493313, ground_speed=0.029215053, wind_vel=0.0, airspeed=0.45477885, roll=0.08, pitch=0.06, yaw=2.92, ch3percent=0.00, ch9out=0, ch10out=0, ch11out=0, ch12out=0, battery_voltage=0, battery_current=-1, lat=35.0767269, lon=129.0920458, ch3out=1000}
[2025-03-12 09:56:52] {GCS_IP=172.24.54.249, timestamp=2025-03-12 09:56:52, systemid=1, alt=-0.078, dist_traveled=null, wp_dist=0, dist_to_home=6.654648697936874, vertical_speed=-0.0071733985, ground_speed=0.029195843, wind_vel=0.0, airspeed=0.39352974, roll=0.08, pitch=0.06, yaw=2.93, ch3percent=0.00, ch9out=0, ch10out=0, ch11out=0, ch12out=0, battery_voltage=0, battery_current=-1, lat=35.0767269, lon=129.0920458, ch3out=1000}
[2025-03-12 09:56:53] {GCS_IP=172.24.54.249, timestamp=2025-03-12 09:56:53, systemid=1, alt=-0.083, dist_traveled=null, wp_dist=0, dist_to_home=6.654648697936874, vertical_speed=-0.0066483705, ground_speed=0.029283786, wind_vel=0.0, airspeed=0.6307817, roll=0.08, pitch=0.06, yaw=2.94, ch3percent=0.00, ch9out=0, ch10out=0, ch11out=0, ch12out=0, battery_voltage=0, battery_current=-1, lat=35.0767269, lon=129.0920458, ch3out=1000}
[2025-03-12 09:56:54] {GCS_IP=172.24.54.249, timestamp=2025-03-12 09:56:54, systemid=1, alt=-0.028, dist_traveled=null, wp_dist=0, dist_to_home=6.654648697936874, vertical_speed=-0.010512274, ground_speed=0.029457718, wind_vel=0.0, airspeed=0.8834227, roll=0.08, pitch=0.06, yaw=2.94, ch3percent=0.00, ch9out=0, ch10out=0, ch11out=0, ch12out=0, battery_voltage=0, battery_current=-1, lat=35.0767269, lon=129.0920458, ch3out=1000}
[2025-03-12 09:56:55] {GCS_IP=172.24.54.249, timestamp=2025-03-12 09:56:55, systemid=1, alt=-0.082, dist_traveled=null, wp_dist=0, dist_to_home=6.654648697936874, vertical_speed=-0.01753797, ground_speed=0.029728388, wind_vel=0.0, airspeed=0.5477771, roll=0.08, pitch=0.06, yaw=2.95, ch3percent=0.00, ch9out=0, ch10out=0, ch11out=0, ch12out=0, battery_voltage=0, battery_current=-1, lat=35.0767269, lon=129.0920458, ch3out=1000}
[2025-03-12 09:56:56] {GCS_IP=172.24.54.249, timestamp=2025-03-12 09:56:56, systemid=1, alt=-0.131, dist_traveled=null, wp_dist=0, dist_to_home=6.654648697936874, vertical_speed=-0.021483717, ground_speed=0.029690392, wind_vel=0.0, airspeed=0.21571659, roll=0.07, pitch=0.06, yaw=2.96, ch3percent=0.00, ch9out=0, ch10out=0, ch11out=0, ch12out=0, battery_voltage=0, battery_current=-1, lat=35.0767269, lon=129.0920458, ch3out=1000}
[2025-03-12 09:56:57] {GCS_IP=172.24.54.249, timestamp=2025-03-12 09:56:57, systemid=1, alt=-0.159, dist_traveled=null, wp_dist=0, dist_to_home=6.654648697936874, vertical_speed=-0.02146298, ground_speed=0.029828541, wind_vel=0.0, airspeed=0.6382025, roll=0.08, pitch=0.06, yaw=2.97, ch3percent=0.00, ch9out=0, ch10out=0, ch11out=0, ch12out=0, battery_voltage=0, battery_current=-1, lat=35.0767269, lon=129.0920458, ch3out=1000}
[2025-03-12 09:56:58] {GCS_IP=172.24.54.249, timestamp=2025-03-12 09:56:58, systemid=1, alt=-0.162, dist_traveled=null, wp_dist=0, dist_to_home=6.654648697936874, vertical_speed=-0.017475352, ground_speed=0.029764088, wind_vel=0.0, airspeed=0.9397788, roll=0.08, pitch=0.06, yaw=2.98, ch3percent=0.00, ch9out=0, ch10out=0, ch11out=0, ch12out=0, battery_voltage=0, battery_current=-1, lat=35.0767269, lon=129.0920458, ch3out=1000}
[2025-03-12 09:56:59] {GCS_IP=172.24.54.249, timestamp=2025-03-12 09:56:59, systemid=1, alt=-0.175, dist_traveled=null, wp_dist=0, dist_to_home=6.654648697936874, vertical_speed=-0.01568586, ground_speed=0.02985134, wind_vel=0.0, airspeed=0.85389125, roll=0.08, pitch=0.06, yaw=2.99, ch3percent=0.00, ch9out=0, ch10out=0, ch11out=0, ch12out=0, battery_voltage=0, battery_current=-1, lat=35.0767269, lon=129.0920458, ch3out=1000}
[2025-03-12 09:57:00] {GCS_IP=172.24.54.249, timestamp=2025-03-12 09:57:00, systemid=1, alt=-0.023, dist_traveled=null, wp_dist=0, dist_to_home=6.654648697936874, vertical_speed=-0.01849533, ground_speed=0.029787304, wind_vel=0.0, airspeed=0.3303557, roll=0.08, pitch=0.06, yaw=3.00, ch3percent=0.00, ch9out=0, ch10out=0, ch11out=0, ch12out=0, battery_voltage=0, battery_current=-1, lat=35.0767269, lon=129.0920458, ch3out=1000}
[2025-03-12 09:57:01] {GCS_IP=172.24.54.249, timestamp=2025-03-12 09:57:01, systemid=1, alt=-0.053, dist_traveled=null, wp_dist=0, dist_to_home=6.654648697936874, vertical_speed=-0.019059807, ground_speed=0.030024668, wind_vel=0.0, airspeed=0.6060784, roll=0.08, pitch=0.06, yaw=3.01, ch3percent=0.00, ch9out=0, ch10out=0, ch11out=0, ch12out=0, battery_voltage=0, battery_current=-1, lat=35.0767269, lon=129.0920458, ch3out=1000}
[2025-03-12 09:57:02] {GCS_IP=172.24.54.249, timestamp=2025-03-12 09:57:02, systemid=1, alt=-0.106, dist_traveled=null, wp_dist=0, dist_to_home=6.654648697936874, vertical_speed=-0.021878341, ground_speed=0.030298099, wind_vel=0.0, airspeed=0.38188455, roll=0.08, pitch=0.06, yaw=3.01, ch3percent=0.00, ch9out=0, ch10out=0, ch11out=0, ch12out=0, battery_voltage=0, battery_current=-1, lat=35.0767269, lon=129.0920458, ch3out=1000}
[2025-03-12 09:57:03] {GCS_IP=172.24.54.249, timestamp=2025-03-12 09:57:03, systemid=1, alt=-0.157, dist_traveled=null, wp_dist=0, dist_to_home=6.654648697936874, vertical_speed=-0.02469149, ground_speed=0.030154543, wind_vel=0.0, airspeed=0.15884252, roll=0.08, pitch=0.06, yaw=3.02, ch3percent=0.00, ch9out=0, ch10out=0, ch11out=0, ch12out=0, battery_voltage=0, battery_current=-1, lat=35.0767269, lon=129.0920458, ch3out=1000}
[2025-03-12 09:57:04] {GCS_IP=172.24.54.249, timestamp=2025-03-12 09:57:04, systemid=1, alt=-0.176, dist_traveled=null, wp_dist=0, dist_to_home=6.654648697936874, vertical_speed=-0.021813335, ground_speed=0.029945472, wind_vel=0.0, airspeed=1.0333252, roll=0.08, pitch=0.06, yaw=3.03, ch3percent=0.00, ch9out=0, ch10out=0, ch11out=0, ch12out=0, battery_voltage=0, battery_current=-1, lat=35.0767269, lon=129.0920458, ch3out=1000}
[2025-03-12 09:57:05] {GCS_IP=172.24.54.249, timestamp=2025-03-12 09:57:05, systemid=1, alt=-0.18, dist_traveled=null, wp_dist=0, dist_to_home=6.654648697936874, vertical_speed=-0.01722036, ground_speed=0.029897986, wind_vel=0.0, airspeed=0.5191971, roll=0.08, pitch=0.06, yaw=3.04, ch3percent=0.00, ch9out=0, ch10out=0, ch11out=0, ch12out=0, battery_voltage=0, battery_current=-1, lat=35.0767269, lon=129.0920458, ch3out=1000}
[2025-03-12 09:57:06] {GCS_IP=172.24.54.249, timestamp=2025-03-12 09:57:06, systemid=1, alt=-0.026, dist_traveled=null, wp_dist=0, dist_to_home=6.654648697936874, vertical_speed=-0.016315607, ground_speed=0.030057088, wind_vel=0.0, airspeed=0.30286136, roll=0.08, pitch=0.06, yaw=3.05, ch3percent=0.00, ch9out=0, ch10out=0, ch11out=0, ch12out=0, battery_voltage=0, battery_current=-1, lat=35.0767269, lon=129.0920458, ch3out=1000}
[2025-03-12 09:57:07] {GCS_IP=172.24.54.249, timestamp=2025-03-12 09:57:07, systemid=1, alt=-0.059, dist_traveled=null, wp_dist=0, dist_to_home=6.654648697936874, vertical_speed=-0.018213775, ground_speed=0.03027954, wind_vel=0.0, airspeed=0.5938896, roll=0.08, pitch=0.06, yaw=3.06, ch3percent=0.00, ch9out=0, ch10out=0, ch11out=0, ch12out=0, battery_voltage=0, battery_current=-1, lat=35.0767269, lon=129.0920458, ch3out=1000}
[2025-03-12 09:57:08] {GCS_IP=172.24.54.249, timestamp=2025-03-12 09:57:08, systemid=1, alt=-0.1, dist_traveled=null, wp_dist=0, dist_to_home=6.654648697936874, vertical_speed=-0.019056695, ground_speed=0.03045895, wind_vel=0.0, airspeed=0.48704532, roll=0.08, pitch=0.07, yaw=3.07, ch3percent=0.00, ch9out=0, ch10out=0, ch11out=0, ch12out=0, battery_voltage=0, battery_current=-1, lat=35.0767269, lon=129.0920458, ch3out=1000}
[2025-03-12 09:57:09] {GCS_IP=172.24.54.249, timestamp=2025-03-12 09:57:09, systemid=1, alt=-0.118, dist_traveled=null, wp_dist=0, dist_to_home=6.654648697936874, vertical_speed=-0.016835015, ground_speed=0.030667804, wind_vel=0.0, airspeed=0.98067385, roll=0.08, pitch=0.07, yaw=3.08, ch3percent=0.00, ch9out=0, ch10out=0, ch11out=0, ch12out=0, battery_voltage=0, battery_current=-1, lat=35.0767269, lon=129.0920458, ch3out=1000}
[2025-03-12 09:57:10] {GCS_IP=172.24.54.249, timestamp=2025-03-12 09:57:10, systemid=1, alt=-0.121, dist_traveled=null, wp_dist=0, dist_to_home=6.654648697936874, vertical_speed=-0.01254151, ground_speed=0.030683558, wind_vel=0.0, airspeed=0.38366297, roll=0.08, pitch=0.07, yaw=3.09, ch3percent=0.00, ch9out=0, ch10out=0, ch11out=0, ch12out=0, battery_voltage=0, battery_current=-1, lat=35.0767269, lon=129.0920458, ch3out=1000}
[2025-03-12 09:57:11] {GCS_IP=172.24.54.249, timestamp=2025-03-12 09:57:11, systemid=1, alt=-0.145, dist_traveled=null, wp_dist=0, dist_to_home=6.654648697936874, vertical_speed=-0.012169628, ground_speed=0.03051575, wind_vel=0.0, airspeed=0.7591371, roll=0.08, pitch=0.07, yaw=3.10, ch3percent=0.00, ch9out=0, ch10out=0, ch11out=0, ch12out=0, battery_voltage=0, battery_current=-1, lat=35.0767269, lon=129.0920458, ch3out=1000}
[2025-03-12 09:57:12] {GCS_IP=172.24.54.249, timestamp=2025-03-12 09:57:12, systemid=1, alt=-0.019, dist_traveled=null, wp_dist=0, dist_to_home=6.654648697936874, vertical_speed=-0.012635715, ground_speed=0.030562134, wind_vel=0.0, airspeed=0.9812481, roll=0.08, pitch=0.07, yaw=3.11, ch3percent=0.00, ch9out=0, ch10out=0, ch11out=0, ch12out=0, battery_voltage=0, battery_current=-1, lat=35.0767269, lon=129.0920458, ch3out=1000}
[2025-03-12 09:57:13] {GCS_IP=172.24.54.249, timestamp=2025-03-12 09:57:13, systemid=1, alt=-0.033, dist_traveled=null, wp_dist=0, dist_to_home=6.654648697936874, vertical_speed=-0.012014017, ground_speed=0.030765496, wind_vel=0.0, airspeed=0.76330024, roll=0.08, pitch=0.07, yaw=3.12, ch3percent=0.00, ch9out=0, ch10out=0, ch11out=0, ch12out=0, battery_voltage=0, battery_current=-1, lat=35.0767269, lon=129.0920458, ch3out=1000}
[2025-03-12 09:57:14] {GCS_IP=172.24.54.249, timestamp=2025-03-12 09:57:14, systemid=1, alt=-0.053, dist_traveled=null, wp_dist=0, dist_to_home=6.654648697936874, vertical_speed=-0.010315133, ground_speed=0.030747576, wind_vel=0.0, airspeed=0.46851075, roll=0.08, pitch=0.07, yaw=3.13, ch3percent=0.00, ch9out=0, ch10out=0, ch11out=0, ch12out=0, battery_voltage=0, battery_current=-1, lat=35.0767269, lon=129.0920458, ch3out=1000}
[2025-03-12 09:57:15] {GCS_IP=172.24.54.249, timestamp=2025-03-12 09:57:15, systemid=1, alt=-0.06, dist_traveled=null, wp_dist=0, dist_to_home=6.654648697936874, vertical_speed=-0.007329792, ground_speed=0.03051145, wind_vel=0.0, airspeed=0.3425542, roll=0.08, pitch=0.07, yaw=3.14, ch3percent=0.00, ch9out=0, ch10out=0, ch11out=0, ch12out=0, battery_voltage=0, battery_current=-1, lat=35.0767269, lon=129.0920458, ch3out=1000}
[2025-03-12 09:57:16] {GCS_IP=172.24.54.249, timestamp=2025-03-12 09:57:16, systemid=1, alt=-0.057, dist_traveled=null, wp_dist=0, dist_to_home=6.654648697936874, vertical_speed=-0.004855414, ground_speed=0.030655745, wind_vel=0.0, airspeed=0.20572144, roll=0.08, pitch=0.07, yaw=3.15, ch3percent=0.00, ch9out=0, ch10out=0, ch11out=0, ch12out=0, battery_voltage=0, battery_current=-1, lat=35.0767269, lon=129.0920458, ch3out=1000}
[2025-03-12 09:57:17] {GCS_IP=172.24.54.249, timestamp=2025-03-12 09:57:17, systemid=1, alt=-0.023, dist_traveled=null, wp_dist=0, dist_to_home=6.654648697936874, vertical_speed=-0.0032826555, ground_speed=0.03061567, wind_vel=0.0, airspeed=0.66999537, roll=0.08, pitch=0.07, yaw=3.16, ch3percent=0.00, ch9out=0, ch10out=0, ch11out=0, ch12out=0, battery_voltage=0, battery_current=-1, lat=35.0767269, lon=129.0920458, ch3out=1000}
[2025-03-12 09:57:18] {GCS_IP=172.24.54.249, timestamp=2025-03-12 09:57:18, systemid=1, alt=-0.009, dist_traveled=null, wp_dist=0, dist_to_home=6.654648697936874, vertical_speed=-0.004999104, ground_speed=0.030885506, wind_vel=0.0, airspeed=0.93573785, roll=0.08, pitch=0.07, yaw=3.17, ch3percent=0.00, ch9out=0, ch10out=0, ch11out=0, ch12out=0, battery_voltage=0, battery_current=-1, lat=35.0767269, lon=129.0920458, ch3out=1000}
[2025-03-12 09:57:19] {GCS_IP=172.24.54.249, timestamp=2025-03-12 09:57:19, systemid=1, alt=-0.038, dist_traveled=null, wp_dist=0, dist_to_home=6.654648697936874, vertical_speed=-0.0062219165, ground_speed=0.031074548, wind_vel=0.0, airspeed=0.71830153, roll=0.08, pitch=0.07, yaw=3.18, ch3percent=0.00, ch9out=0, ch10out=0, ch11out=0, ch12out=0, battery_voltage=0, battery_current=-1, lat=35.0767269, lon=129.0920458, ch3out=1000}
[2025-03-12 09:57:20] {GCS_IP=172.24.54.249, timestamp=2025-03-12 09:57:20, systemid=1, alt=-0.047, dist_traveled=null, wp_dist=0, dist_to_home=6.654648697936874, vertical_speed=-0.0048665395, ground_speed=0.031097092, wind_vel=0.0, airspeed=0.8415883, roll=0.08, pitch=0.07, yaw=3.19, ch3percent=0.00, ch9out=0, ch10out=0, ch11out=0, ch12out=0, battery_voltage=0, battery_current=-1, lat=35.0767269, lon=129.0920458, ch3out=1000}
[2025-03-12 09:57:21] {GCS_IP=172.24.54.249, timestamp=2025-03-12 09:57:21, systemid=1, alt=-0.054, dist_traveled=null, wp_dist=0, dist_to_home=6.654648697936874, vertical_speed=-0.003566262, ground_speed=0.03093548, wind_vel=0.0, airspeed=0.81403834, roll=0.08, pitch=0.07, yaw=3.20, ch3percent=0.00, ch9out=0, ch10out=0, ch11out=0, ch12out=0, battery_voltage=0, battery_current=-1, lat=35.0767269, lon=129.0920458, ch3out=1000}
[2025-03-12 09:57:22] {GCS_IP=172.24.54.249, timestamp=2025-03-12 09:57:22, systemid=1, alt=-0.053, dist_traveled=null, wp_dist=0, dist_to_home=6.654648697936874, vertical_speed=-0.0019364242, ground_speed=0.031029126, wind_vel=0.0, airspeed=0.8086162, roll=0.08, pitch=0.07, yaw=3.21, ch3percent=0.00, ch9out=0, ch10out=0, ch11out=0, ch12out=0, battery_voltage=0, battery_current=-1, lat=35.0767269, lon=129.0920458, ch3out=1000}
[2025-03-12 09:57:23] {GCS_IP=172.24.54.249, timestamp=2025-03-12 09:57:23, systemid=1, alt=-0.064, dist_traveled=null, wp_dist=0, dist_to_home=6.654648697936874, vertical_speed=-0.0020777977, ground_speed=0.031086534, wind_vel=0.0, airspeed=0.5060302, roll=0.08, pitch=0.07, yaw=3.22, ch3percent=0.00, ch9out=0, ch10out=0, ch11out=0, ch12out=0, battery_voltage=0, battery_current=-1, lat=35.0767269, lon=129.0920458, ch3out=1000}
[2025-03-12 09:57:24] {GCS_IP=172.24.54.249, timestamp=2025-03-12 09:57:24, systemid=1, alt=0.01, dist_traveled=null, wp_dist=0, dist_to_home=6.654648697936874, vertical_speed=0.0021170964, ground_speed=0.031243715, wind_vel=0.0, airspeed=0.81257015, roll=0.08, pitch=0.07, yaw=3.23, ch3percent=0.00, ch9out=0, ch10out=0, ch11out=0, ch12out=0, battery_voltage=0, battery_current=-1, lat=35.0767269, lon=129.0920458, ch3out=1000}
[2025-03-12 09:57:25] {GCS_IP=172.24.54.249, timestamp=2025-03-12 09:57:25, systemid=1, alt=0.011, dist_traveled=null, wp_dist=0, dist_to_home=6.654648697936874, vertical_speed=0.0024436973, ground_speed=0.031246781, wind_vel=0.0, airspeed=0.35582823, roll=0.08, pitch=0.07, yaw=3.24, ch3percent=0.00, ch9out=0, ch10out=0, ch11out=0, ch12out=0, battery_voltage=0, battery_current=-1, lat=35.0767269, lon=129.0920458, ch3out=1000}
[2025-03-12 09:57:26] {GCS_IP=172.24.54.249, timestamp=2025-03-12 09:57:26, systemid=1, alt=0.021, dist_traveled=null, wp_dist=0, dist_to_home=6.654648697936874, vertical_speed=0.0046343897, ground_speed=0.03129101, wind_vel=0.0, airspeed=0.87960476, roll=0.08, pitch=0.07, yaw=3.25, ch3percent=0.00, ch9out=0, ch10out=0, ch11out=0, ch12out=0, battery_voltage=0, battery_current=-1, lat=35.0767269, lon=129.0920458, ch3out=1000}
[2025-03-12 09:57:27] {GCS_IP=172.24.54.249, timestamp=2025-03-12 09:57:27, systemid=1, alt=0.033, dist_traveled=null, wp_dist=0, dist_to_home=6.654648697936874, vertical_speed=0.006255953, ground_speed=0.031306546, wind_vel=0.0, airspeed=0.6854362, roll=0.08, pitch=0.07, yaw=3.26, ch3percent=0.00, ch9out=0, ch10out=0, ch11out=0, ch12out=0, battery_voltage=0, battery_current=-1, lat=35.0767269, lon=129.0920458, ch3out=1000}
[2025-03-12 09:57:28] {GCS_IP=172.24.54.249, timestamp=2025-03-12 09:57:28, systemid=1, alt=0.025, dist_traveled=null, wp_dist=0, dist_to_home=6.654648697936874, vertical_speed=0.0054252967, ground_speed=0.031313177, wind_vel=0.0, airspeed=0.6484821, roll=0.08, pitch=0.07, yaw=3.27, ch3percent=0.00, ch9out=0, ch10out=0, ch11out=0, ch12out=0, battery_voltage=0, battery_current=-1, lat=35.0767269, lon=129.0920458, ch3out=1000}
[2025-03-12 09:57:29] {GCS_IP=172.24.54.249, timestamp=2025-03-12 09:57:29, systemid=1, alt=0.005, dist_traveled=null, wp_dist=0, dist_to_home=6.654648697936874, vertical_speed=0.0036103306, ground_speed=0.0314819, wind_vel=0.0, airspeed=0.9620961, roll=0.08, pitch=0.07, yaw=3.28, ch3percent=0.00, ch9out=0, ch10out=0, ch11out=0, ch12out=0, battery_voltage=0, battery_current=-1, lat=35.0767269, lon=129.0920458, ch3out=1000}
[2025-03-12 09:57:30] {GCS_IP=172.24.54.249, timestamp=2025-03-12 09:57:30, systemid=1, alt=-0.003, dist_traveled=null, wp_dist=0, dist_to_home=6.654648697936874, vertical_speed=0.0033220283, ground_speed=0.03164788, wind_vel=0.0, airspeed=0.7822972, roll=0.08, pitch=0.07, yaw=3.29, ch3percent=0.00, ch9out=0, ch10out=0, ch11out=0, ch12out=0, battery_voltage=0, battery_current=-1, lat=35.0767269, lon=129.0920458, ch3out=1000}
[2025-03-12 09:57:31] {GCS_IP=172.24.54.249, timestamp=2025-03-12 09:57:31, systemid=1, alt=0.004, dist_traveled=null, wp_dist=0, dist_to_home=6.654648697936874, vertical_speed=0.00415285, ground_speed=0.03184845, wind_vel=0.0, airspeed=0.42509532, roll=0.08, pitch=0.07, yaw=3.30, ch3percent=0.00, ch9out=0, ch10out=0, ch11out=0, ch12out=0, battery_voltage=0, battery_current=-1, lat=35.0767269, lon=129.0920458, ch3out=1000}
[2025-03-12 09:57:32] {GCS_IP=172.24.54.249, timestamp=2025-03-12 09:57:32, systemid=1, alt=-0.003, dist_traveled=null, wp_dist=0, dist_to_home=6.654648697936874, vertical_speed=0.0028263542, ground_speed=0.031651273, wind_vel=0.0, airspeed=0.74896485, roll=0.08, pitch=0.07, yaw=3.31, ch3percent=0.00, ch9out=0, ch10out=0, ch11out=0, ch12out=0, battery_voltage=0, battery_current=-1, lat=35.0767269, lon=129.0920458, ch3out=1000}
[2025-03-12 09:57:34] {GCS_IP=172.24.54.249, timestamp=2025-03-12 09:57:33, systemid=1, alt=0.008, dist_traveled=null, wp_dist=0, dist_to_home=6.654648697936874, vertical_speed=0.0043576397, ground_speed=0.03141215, wind_vel=0.0, airspeed=0.540566, roll=0.08, pitch=0.07, yaw=3.32, ch3percent=0.00, ch9out=0, ch10out=0, ch11out=0, ch12out=0, battery_voltage=0, battery_current=-1, lat=35.0767269, lon=129.0920458, ch3out=1000}
[2025-03-12 09:57:35] {GCS_IP=172.24.54.249, timestamp=2025-03-12 09:57:34, systemid=1, alt=0.01, dist_traveled=null, wp_dist=0, dist_to_home=6.654648697936874, vertical_speed=0.004131066, ground_speed=0.031275004, wind_vel=0.0, airspeed=0.5347929, roll=0.08, pitch=0.07, yaw=3.33, ch3percent=0.00, ch9out=0, ch10out=0, ch11out=0, ch12out=0, battery_voltage=0, battery_current=-1, lat=35.0767269, lon=129.0920458, ch3out=1000}
[2025-03-12 09:57:36] {GCS_IP=172.24.54.249, timestamp=2025-03-12 09:57:35, systemid=1, alt=0.003, dist_traveled=null, wp_dist=0, dist_to_home=6.654648697936874, vertical_speed=0.002562743, ground_speed=0.03141506, wind_vel=0.0, airspeed=0.6340586, roll=0.08, pitch=0.07, yaw=3.34, ch3percent=0.00, ch9out=0, ch10out=0, ch11out=0, ch12out=0, battery_voltage=0, battery_current=-1, lat=35.0767269, lon=129.0920458, ch3out=1000}
[2025-03-12 09:57:37] {GCS_IP=172.24.54.249, timestamp=2025-03-12 09:57:36, systemid=1, alt=-0.034, dist_traveled=null, wp_dist=0, dist_to_home=6.654648697936874, vertical_speed=-0.0034267702, ground_speed=0.031268746, wind_vel=0.0, airspeed=0.70948106, roll=0.08, pitch=0.07, yaw=3.36, ch3percent=0.00, ch9out=0, ch10out=0, ch11out=0, ch12out=0, battery_voltage=0, battery_current=-1, lat=35.0767269, lon=129.0920458, ch3out=1000}
[2025-03-12 09:57:38] {GCS_IP=172.24.54.249, timestamp=2025-03-12 09:57:37, systemid=1, alt=-0.064, dist_traveled=null, wp_dist=0, dist_to_home=6.654648697936874, vertical_speed=-0.0072992435, ground_speed=0.031402666, wind_vel=0.0, airspeed=1.0494514, roll=0.08, pitch=0.07, yaw=3.36, ch3percent=0.00, ch9out=0, ch10out=0, ch11out=0, ch12out=0, battery_voltage=0, battery_current=-1, lat=35.0767269, lon=129.0920458, ch3out=1000}
[2025-03-12 09:57:39] {GCS_IP=172.24.54.249, timestamp=2025-03-12 09:57:38, systemid=1, alt=-0.084, dist_traveled=null, wp_dist=0, dist_to_home=6.654648697936874, vertical_speed=-0.009314615, ground_speed=0.031385783, wind_vel=0.0, airspeed=0.16965324, roll=0.08, pitch=0.07, yaw=3.37, ch3percent=0.00, ch9out=0, ch10out=0, ch11out=0, ch12out=0, battery_voltage=0, battery_current=-1, lat=35.0767269, lon=129.0920458, ch3out=1000}
[2025-03-12 09:57:40] {GCS_IP=172.24.54.249, timestamp=2025-03-12 09:57:39, systemid=1, alt=-0.109, dist_traveled=null, wp_dist=0, dist_to_home=6.654648697936874, vertical_speed=-0.011274328, ground_speed=0.03124928, wind_vel=0.0, airspeed=0.79690605, roll=0.08, pitch=0.07, yaw=3.38, ch3percent=0.00, ch9out=0, ch10out=0, ch11out=0, ch12out=0, battery_voltage=0, battery_current=-1, lat=35.0767269, lon=129.0920458, ch3out=1000}
[2025-03-12 09:57:41] {GCS_IP=172.24.54.249, timestamp=2025-03-12 09:57:41, systemid=1, alt=-0.103, dist_traveled=null, wp_dist=0, dist_to_home=6.654648697936874, vertical_speed=-0.007253608, ground_speed=0.031267527, wind_vel=0.0, airspeed=0.4267692, roll=0.08, pitch=0.07, yaw=3.40, ch3percent=0.00, ch9out=0, ch10out=0, ch11out=0, ch12out=0, battery_voltage=0, battery_current=-1, lat=35.0767269, lon=129.0920458, ch3out=1000}
[2025-03-12 09:57:42] {GCS_IP=172.24.54.249, timestamp=2025-03-12 09:57:42, systemid=1, alt=-0.036, dist_traveled=null, wp_dist=0, dist_to_home=6.654648697936874, vertical_speed=-0.0050463, ground_speed=0.03107084, wind_vel=0.0, airspeed=0.5576489, roll=0.08, pitch=0.07, yaw=3.41, ch3percent=0.00, ch9out=0, ch10out=0, ch11out=0, ch12out=0, battery_voltage=0, battery_current=-1, lat=35.0767269, lon=129.0920458, ch3out=1000}
[2025-03-12 09:57:43] {GCS_IP=172.24.54.249, timestamp=2025-03-12 09:57:43, systemid=1, alt=0.01, dist_traveled=null, wp_dist=0, dist_to_home=6.654648697936874, vertical_speed=-0.0029115502, ground_speed=0.031153176, wind_vel=0.0, airspeed=0.2871594, roll=0.08, pitch=0.07, yaw=3.42, ch3percent=0.00, ch9out=0, ch10out=0, ch11out=0, ch12out=0, battery_voltage=0, battery_current=-1, lat=35.0767269, lon=129.0920458, ch3out=1000}
[2025-03-12 09:57:44] {GCS_IP=172.24.54.249, timestamp=2025-03-12 09:57:44, systemid=1, alt=0.011, dist_traveled=null, wp_dist=0, dist_to_home=6.654648697936874, vertical_speed=-0.0013302831, ground_speed=0.031108517, wind_vel=0.0, airspeed=0.53007746, roll=0.08, pitch=0.07, yaw=3.43, ch3percent=0.00, ch9out=0, ch10out=0, ch11out=0, ch12out=0, battery_voltage=0, battery_current=-1, lat=35.0767269, lon=129.0920458, ch3out=1000}
[2025-03-12 09:57:45] {GCS_IP=172.24.54.249, timestamp=2025-03-12 09:57:45, systemid=1, alt=0.003, dist_traveled=null, wp_dist=0, dist_to_home=6.654648697936874, vertical_speed=-0.0021336318, ground_speed=0.03095605, wind_vel=0.0, airspeed=0.3997803, roll=0.08, pitch=0.07, yaw=3.44, ch3percent=0.00, ch9out=0, ch10out=0, ch11out=0, ch12out=0, battery_voltage=0, battery_current=-1, lat=35.0767269, lon=129.0920458, ch3out=1000}
[2025-03-12 09:57:46] {GCS_IP=172.24.54.249, timestamp=2025-03-12 09:57:46, systemid=1, alt=0.001, dist_traveled=null, wp_dist=0, dist_to_home=6.654648697936874, vertical_speed=-0.0014244514, ground_speed=0.03111017, wind_vel=0.0, airspeed=0.43599072, roll=0.08, pitch=0.07, yaw=3.45, ch3percent=0.00, ch9out=0, ch10out=0, ch11out=0, ch12out=0, battery_voltage=0, battery_current=-1, lat=35.0767269, lon=129.0920458, ch3out=1000}
[2025-03-12 09:57:47] {GCS_IP=172.24.54.249, timestamp=2025-03-12 09:57:47, systemid=1, alt=0.017, dist_traveled=null, wp_dist=0, dist_to_home=6.654648697936874, vertical_speed=0.0014450811, ground_speed=0.031091833, wind_vel=0.0, airspeed=0.6951739, roll=0.08, pitch=0.07, yaw=3.46, ch3percent=0.00, ch9out=0, ch10out=0, ch11out=0, ch12out=0, battery_voltage=0, battery_current=-1, lat=35.0767269, lon=129.0920458, ch3out=1000}
[2025-03-12 09:57:48] {GCS_IP=172.24.54.249, timestamp=2025-03-12 09:57:48, systemid=1, alt=0.008, dist_traveled=null, wp_dist=0, dist_to_home=6.654648697936874, vertical_speed=0.0013622578, ground_speed=0.03119574, wind_vel=0.0, airspeed=0.8633292, roll=0.08, pitch=0.07, yaw=3.47, ch3percent=0.00, ch9out=0, ch10out=0, ch11out=0, ch12out=0, battery_voltage=0, battery_current=-1, lat=35.0767269, lon=129.0920458, ch3out=1000}
[2025-03-12 09:57:49] {GCS_IP=172.24.54.249, timestamp=2025-03-12 09:57:49, systemid=1, alt=-0.046, dist_traveled=null, wp_dist=0, dist_to_home=6.654648697936874, vertical_speed=-0.0059681716, ground_speed=0.031106006, wind_vel=0.0, airspeed=0.6667328, roll=0.08, pitch=0.07, yaw=3.48, ch3percent=0.00, ch9out=0, ch10out=0, ch11out=0, ch12out=0, battery_voltage=0, battery_current=-1, lat=35.0767269, lon=129.0920458, ch3out=1000}
[2025-03-12 09:57:50] {GCS_IP=172.24.54.249, timestamp=2025-03-12 09:57:50, systemid=1, alt=-0.066, dist_traveled=null, wp_dist=0, dist_to_home=6.654648697936874, vertical_speed=-0.0063913413, ground_speed=0.03124426, wind_vel=0.0, airspeed=0.35841876, roll=0.08, pitch=0.07, yaw=3.48, ch3percent=0.00, ch9out=0, ch10out=0, ch11out=0, ch12out=0, battery_voltage=0, battery_current=-1, lat=35.0767269, lon=129.0920458, ch3out=1000}
[2025-03-12 09:57:51] {GCS_IP=172.24.54.249, timestamp=2025-03-12 09:57:51, systemid=1, alt=-0.09, dist_traveled=null, wp_dist=0, dist_to_home=6.654648697936874, vertical_speed=-0.009967137, ground_speed=0.031314395, wind_vel=0.0, airspeed=0.33736393, roll=0.08, pitch=0.07, yaw=3.49, ch3percent=0.00, ch9out=0, ch10out=0, ch11out=0, ch12out=0, battery_voltage=0, battery_current=-1, lat=35.0767269, lon=129.0920458, ch3out=1000}
[2025-03-12 09:57:52] {GCS_IP=172.24.54.249, timestamp=2025-03-12 09:57:52, systemid=1, alt=-0.117, dist_traveled=null, wp_dist=0, dist_to_home=6.654648697936874, vertical_speed=-0.011584301, ground_speed=0.03116901, wind_vel=0.0, airspeed=0.8588271, roll=0.08, pitch=0.07, yaw=3.50, ch3percent=0.00, ch9out=0, ch10out=0, ch11out=0, ch12out=0, battery_voltage=0, battery_current=-1, lat=35.0767269, lon=129.0920458, ch3out=1000}
[2025-03-12 09:57:53] {GCS_IP=172.24.54.249, timestamp=2025-03-12 09:57:53, systemid=1, alt=-0.131, dist_traveled=null, wp_dist=0, dist_to_home=6.654648697936874, vertical_speed=-0.010512472, ground_speed=0.031230718, wind_vel=0.0, airspeed=0.31682155, roll=0.08, pitch=0.07, yaw=3.51, ch3percent=0.00, ch9out=0, ch10out=0, ch11out=0, ch12out=0, battery_voltage=0, battery_current=-1, lat=35.0767269, lon=129.0920458, ch3out=1000}
[2025-03-12 09:57:54] {GCS_IP=172.24.54.249, timestamp=2025-03-12 09:57:54, systemid=1, alt=-0.051, dist_traveled=null, wp_dist=0, dist_to_home=6.654648697936874, vertical_speed=-0.009912166, ground_speed=0.031229716, wind_vel=0.0, airspeed=0.24522033, roll=0.08, pitch=0.07, yaw=3.52, ch3percent=0.00, ch9out=0, ch10out=0, ch11out=0, ch12out=0, battery_voltage=0, battery_current=-1, lat=35.0767269, lon=129.0920458, ch3out=1000}
[2025-03-12 09:57:55] {GCS_IP=172.24.54.249, timestamp=2025-03-12 09:57:55, systemid=1, alt=0.003, dist_traveled=null, wp_dist=0, dist_to_home=6.654648697936874, vertical_speed=-0.0063219885, ground_speed=0.031181123, wind_vel=0.0, airspeed=0.14876325, roll=0.08, pitch=0.07, yaw=3.53, ch3percent=0.00, ch9out=0, ch10out=0, ch11out=0, ch12out=0, battery_voltage=0, battery_current=-1, lat=35.0767269, lon=129.0920458, ch3out=1000}
[2025-03-12 09:57:56] {GCS_IP=172.24.54.249, timestamp=2025-03-12 09:57:56, systemid=1, alt=0.009, dist_traveled=null, wp_dist=0, dist_to_home=6.654648697936874, vertical_speed=-0.0040134345, ground_speed=0.031267203, wind_vel=0.0, airspeed=0.18042777, roll=0.08, pitch=0.07, yaw=3.54, ch3percent=0.00, ch9out=0, ch10out=0, ch11out=0, ch12out=0, battery_voltage=0, battery_current=-1, lat=35.0767269, lon=129.0920458, ch3out=1000}
[2025-03-12 09:57:57] {GCS_IP=172.24.54.249, timestamp=2025-03-12 09:57:57, systemid=1, alt=0.005, dist_traveled=null, wp_dist=0, dist_to_home=6.654648697936874, vertical_speed=-0.002416395, ground_speed=0.03137335, wind_vel=0.0, airspeed=0.090840876, roll=0.08, pitch=0.07, yaw=3.55, ch3percent=0.00, ch9out=0, ch10out=0, ch11out=0, ch12out=0, battery_voltage=0, battery_current=-1, lat=35.0767269, lon=129.0920458, ch3out=1000}
[2025-03-12 09:57:58] {GCS_IP=172.24.54.249, timestamp=2025-03-12 09:57:58, systemid=1, alt=0.017, dist_traveled=null, wp_dist=0, dist_to_home=6.654648697936874, vertical_speed=-5.931381E-4, ground_speed=0.031435657, wind_vel=0.0, airspeed=0.74396014, roll=0.08, pitch=0.07, yaw=3.56, ch3percent=0.00, ch9out=0, ch10out=0, ch11out=0, ch12out=0, battery_voltage=0, battery_current=-1, lat=35.0767269, lon=129.0920458, ch3out=1000}
[2025-03-12 09:57:59] {GCS_IP=172.24.54.249, timestamp=2025-03-12 09:57:59, systemid=1, alt=0.018, dist_traveled=null, wp_dist=0, dist_to_home=6.654648697936874, vertical_speed=0.0013248265, ground_speed=0.03135318, wind_vel=0.0, airspeed=0.6151206, roll=0.08, pitch=0.07, yaw=3.57, ch3percent=0.00, ch9out=0, ch10out=0, ch11out=0, ch12out=0, battery_voltage=0, battery_current=-1, lat=35.0767269, lon=129.0920458, ch3out=1000}
[2025-03-12 09:58:00] {GCS_IP=172.24.54.249, timestamp=2025-03-12 09:58:00, systemid=1, alt=0.012, dist_traveled=null, wp_dist=0, dist_to_home=6.654648697936874, vertical_speed=0.004235195, ground_speed=0.031369127, wind_vel=0.0, airspeed=0.7752607, roll=0.08, pitch=0.07, yaw=3.58, ch3percent=0.00, ch9out=0, ch10out=0, ch11out=0, ch12out=0, battery_voltage=0, battery_current=-1, lat=35.0767269, lon=129.0920458, ch3out=1000}
[2025-03-12 09:58:01] {GCS_IP=172.24.54.249, timestamp=2025-03-12 09:58:01, systemid=1, alt=0.043, dist_traveled=null, wp_dist=0, dist_to_home=6.654648697936874, vertical_speed=0.008992738, ground_speed=0.031394478, wind_vel=0.0, airspeed=0.09612376, roll=0.08, pitch=0.07, yaw=3.59, ch3percent=0.00, ch9out=0, ch10out=0, ch11out=0, ch12out=0, battery_voltage=0, battery_current=-1, lat=35.0767269, lon=129.0920458, ch3out=1000}
[2025-03-12 09:58:02] {GCS_IP=172.24.54.249, timestamp=2025-03-12 09:58:02, systemid=1, alt=0.045, dist_traveled=null, wp_dist=0, dist_to_home=6.654648697936874, vertical_speed=0.0087342365, ground_speed=0.03149499, wind_vel=0.0, airspeed=0.8863545, roll=0.08, pitch=0.07, yaw=3.59, ch3percent=0.00, ch9out=0, ch10out=0, ch11out=0, ch12out=0, battery_voltage=0, battery_current=-1, lat=35.0767269, lon=129.0920458, ch3out=1000}
[2025-03-12 09:58:03] {GCS_IP=172.24.54.249, timestamp=2025-03-12 09:58:03, systemid=1, alt=0.046, dist_traveled=null, wp_dist=0, dist_to_home=6.654648697936874, vertical_speed=0.007166093, ground_speed=0.031580262, wind_vel=0.0, airspeed=0.59362733, roll=0.08, pitch=0.07, yaw=3.61, ch3percent=0.00, ch9out=0, ch10out=0, ch11out=0, ch12out=0, battery_voltage=0, battery_current=-1, lat=35.0767269, lon=129.0920458, ch3out=1000}
[2025-03-12 09:58:04] {GCS_IP=172.24.54.249, timestamp=2025-03-12 09:58:04, systemid=1, alt=0.068, dist_traveled=null, wp_dist=0, dist_to_home=6.654648697936874, vertical_speed=0.009543142, ground_speed=0.031438407, wind_vel=0.0, airspeed=0.42406672, roll=0.08, pitch=0.07, yaw=3.61, ch3percent=0.00, ch9out=0, ch10out=0, ch11out=0, ch12out=0, battery_voltage=0, battery_current=-1, lat=35.0767269, lon=129.0920458, ch3out=1000}
[2025-03-12 09:58:05] {GCS_IP=172.24.54.249, timestamp=2025-03-12 09:58:05, systemid=1, alt=0.071, dist_traveled=null, wp_dist=0, dist_to_home=6.654648697936874, vertical_speed=0.009267815, ground_speed=0.031446554, wind_vel=0.0, airspeed=0.45082426, roll=0.08, pitch=0.07, yaw=3.62, ch3percent=0.00, ch9out=0, ch10out=0, ch11out=0, ch12out=0, battery_voltage=0, battery_current=-1, lat=35.0767269, lon=129.0920458, ch3out=1000}
[2025-03-12 09:58:06] {GCS_IP=172.24.54.249, timestamp=2025-03-12 09:58:06, systemid=1, alt=-0.004, dist_traveled=null, wp_dist=0, dist_to_home=6.654648697936874, vertical_speed=0.00752956, ground_speed=0.031029547, wind_vel=0.0, airspeed=0.71058476, roll=0.08, pitch=0.07, yaw=3.63, ch3percent=0.00, ch9out=0, ch10out=0, ch11out=0, ch12out=0, battery_voltage=0, battery_current=-1, lat=35.0767269, lon=129.0920458, ch3out=1000}
[2025-03-12 09:58:07] {GCS_IP=172.24.54.249, timestamp=2025-03-12 09:58:07, systemid=1, alt=-0.022, dist_traveled=null, wp_dist=0, dist_to_home=6.654648697936874, vertical_speed=0.003556976, ground_speed=0.031163914, wind_vel=0.0, airspeed=0.39102957, roll=0.08, pitch=0.07, yaw=3.64, ch3percent=0.00, ch9out=0, ch10out=0, ch11out=0, ch12out=0, battery_voltage=0, battery_current=-1, lat=35.0767269, lon=129.0920458, ch3out=1000}
[2025-03-12 09:58:08] {GCS_IP=172.24.54.249, timestamp=2025-03-12 09:58:08, systemid=1, alt=-0.055, dist_traveled=null, wp_dist=0, dist_to_home=6.654648697936874, vertical_speed=-0.002353423, ground_speed=0.03130158, wind_vel=0.0, airspeed=0.61224526, roll=0.08, pitch=0.07, yaw=3.65, ch3percent=0.00, ch9out=0, ch10out=0, ch11out=0, ch12out=0, battery_voltage=0, battery_current=-1, lat=35.0767269, lon=129.0920458, ch3out=1000}
[2025-03-12 09:58:09] {GCS_IP=172.24.54.249, timestamp=2025-03-12 09:58:09, systemid=1, alt=-0.068, dist_traveled=null, wp_dist=0, dist_to_home=6.654648697936874, vertical_speed=-0.004420863, ground_speed=0.031455394, wind_vel=0.0, airspeed=0.7759273, roll=0.08, pitch=0.07, yaw=3.65, ch3percent=0.00, ch9out=0, ch10out=0, ch11out=0, ch12out=0, battery_voltage=0, battery_current=-1, lat=35.0767269, lon=129.0920458, ch3out=1000}
[2025-03-12 09:58:10] {GCS_IP=172.24.54.249, timestamp=2025-03-12 09:58:10, systemid=1, alt=-0.075, dist_traveled=null, wp_dist=0, dist_to_home=6.648932908395088, vertical_speed=-0.0048703193, ground_speed=0.031591877, wind_vel=0.0, airspeed=0.3739939, roll=0.08, pitch=0.07, yaw=3.66, ch3percent=0.00, ch9out=0, ch10out=0, ch11out=0, ch12out=0, battery_voltage=0, battery_current=-1, lat=35.0767268, lon=129.0920458, ch3out=1000}
[2025-03-12 09:58:11] {GCS_IP=172.24.54.249, timestamp=2025-03-12 09:58:11, systemid=1, alt=-0.077, dist_traveled=null, wp_dist=0, dist_to_home=6.648932908395088, vertical_speed=-0.0044958657, ground_speed=0.031492252, wind_vel=0.0, airspeed=0.47133228, roll=0.08, pitch=0.07, yaw=3.67, ch3percent=0.00, ch9out=0, ch10out=0, ch11out=0, ch12out=0, battery_voltage=0, battery_current=-1, lat=35.0767268, lon=129.0920458, ch3out=1000}
[2025-03-12 09:58:12] {GCS_IP=172.24.54.249, timestamp=2025-03-12 09:58:12, systemid=1, alt=-0.009, dist_traveled=null, wp_dist=0, dist_to_home=6.648932908395088, vertical_speed=-0.005152724, ground_speed=0.031706505, wind_vel=0.0, airspeed=0.30135652, roll=0.08, pitch=0.07, yaw=3.68, ch3percent=0.00, ch9out=0, ch10out=0, ch11out=0, ch12out=0, battery_voltage=0, battery_current=-1, lat=35.0767268, lon=129.0920458, ch3out=1000}
[2025-03-12 09:58:13] {GCS_IP=172.24.54.249, timestamp=2025-03-12 09:58:13, systemid=1, alt=-0.029, dist_traveled=null, wp_dist=0, dist_to_home=6.648932908395088, vertical_speed=-0.0077551417, ground_speed=0.031976815, wind_vel=0.0, airspeed=0.43291956, roll=0.08, pitch=0.07, yaw=3.68, ch3percent=0.00, ch9out=0, ch10out=0, ch11out=0, ch12out=0, battery_voltage=0, battery_current=-1, lat=35.0767268, lon=129.0920458, ch3out=1000}
[2025-03-12 09:58:14] {GCS_IP=172.24.54.249, timestamp=2025-03-12 09:58:14, systemid=1, alt=-0.016, dist_traveled=null, wp_dist=0, dist_to_home=6.648932908395088, vertical_speed=-0.0040138112, ground_speed=0.031985186, wind_vel=0.0, airspeed=0.59322065, roll=0.08, pitch=0.07, yaw=3.69, ch3percent=0.00, ch9out=0, ch10out=0, ch11out=0, ch12out=0, battery_voltage=0, battery_current=-1, lat=35.0767268, lon=129.0920458, ch3out=1000}
[2025-03-12 09:58:15] {GCS_IP=172.24.54.249, timestamp=2025-03-12 09:58:15, systemid=1, alt=-0.003, dist_traveled=null, wp_dist=0, dist_to_home=6.648932908395088, vertical_speed=-0.0011810169, ground_speed=0.031978253, wind_vel=0.0, airspeed=0.22008286, roll=0.08, pitch=0.07, yaw=3.70, ch3percent=0.00, ch9out=0, ch10out=0, ch11out=0, ch12out=0, battery_voltage=0, battery_current=-1, lat=35.0767268, lon=129.0920458, ch3out=1000}
[2025-03-12 09:58:16] {GCS_IP=172.24.54.249, timestamp=2025-03-12 09:58:16, systemid=1, alt=0.01, dist_traveled=null, wp_dist=0, dist_to_home=6.648932908395088, vertical_speed=0.001363321, ground_speed=0.03184482, wind_vel=0.0, airspeed=1.1652477, roll=0.08, pitch=0.07, yaw=3.70, ch3percent=0.00, ch9out=0, ch10out=0, ch11out=0, ch12out=0, battery_voltage=0, battery_current=-1, lat=35.0767268, lon=129.0920458, ch3out=1000}
[2025-03-12 09:58:17] {GCS_IP=172.24.54.249, timestamp=2025-03-12 09:58:17, systemid=1, alt=0.01, dist_traveled=null, wp_dist=0, dist_to_home=6.648932908395088, vertical_speed=0.001393667, ground_speed=0.031605653, wind_vel=0.0, airspeed=0.76490164, roll=0.08, pitch=0.07, yaw=3.71, ch3percent=0.00, ch9out=0, ch10out=0, ch11out=0, ch12out=0, battery_voltage=0, battery_current=-1, lat=35.0767268, lon=129.0920458, ch3out=1000}
[2025-03-12 09:58:18] {GCS_IP=172.24.54.249, timestamp=2025-03-12 09:58:18, systemid=1, alt=0.006, dist_traveled=null, wp_dist=0, dist_to_home=6.648932908395088, vertical_speed=0.0031539807, ground_speed=0.031621538, wind_vel=0.0, airspeed=0.53453684, roll=0.08, pitch=0.07, yaw=3.72, ch3percent=0.00, ch9out=0, ch10out=0, ch11out=0, ch12out=0, battery_voltage=0, battery_current=-1, lat=35.0767268, lon=129.0920458, ch3out=1000}
[2025-03-12 09:58:19] {GCS_IP=172.24.54.249, timestamp=2025-03-12 09:58:19, systemid=1, alt=0.022, dist_traveled=null, wp_dist=0, dist_to_home=6.648932908395088, vertical_speed=0.0054082638, ground_speed=0.031773653, wind_vel=0.0, airspeed=0.32864335, roll=0.08, pitch=0.07, yaw=3.72, ch3percent=0.00, ch9out=0, ch10out=0, ch11out=0, ch12out=0, battery_voltage=0, battery_current=-1, lat=35.0767268, lon=129.0920458, ch3out=1000}
[2025-03-12 09:58:20] {GCS_IP=172.24.54.249, timestamp=2025-03-12 09:58:20, systemid=1, alt=0.03, dist_traveled=null, wp_dist=0, dist_to_home=6.648932908395088, vertical_speed=0.006284284, ground_speed=0.031061776, wind_vel=0.0, airspeed=0.74732417, roll=0.08, pitch=0.07, yaw=3.73, ch3percent=0.00, ch9out=0, ch10out=0, ch11out=0, ch12out=0, battery_voltage=0, battery_current=-1, lat=35.0767268, lon=129.0920458, ch3out=1000}
[2025-03-12 09:58:21] {GCS_IP=172.24.54.249, timestamp=2025-03-12 09:58:21, systemid=1, alt=0.042, dist_traveled=null, wp_dist=0, dist_to_home=6.648932908395088, vertical_speed=0.0064997133, ground_speed=0.031146588, wind_vel=0.0, airspeed=0.8605003, roll=0.08, pitch=0.07, yaw=3.74, ch3percent=0.00, ch9out=0, ch10out=0, ch11out=0, ch12out=0, battery_voltage=0, battery_current=-1, lat=35.0767268, lon=129.0920458, ch3out=1000}
[2025-03-12 09:58:22] {GCS_IP=172.24.54.249, timestamp=2025-03-12 09:58:22, systemid=1, alt=0.04, dist_traveled=null, wp_dist=0, dist_to_home=6.648932908395088, vertical_speed=0.004051326, ground_speed=0.03138756, wind_vel=0.0, airspeed=0.93113, roll=0.08, pitch=0.07, yaw=3.74, ch3percent=0.00, ch9out=0, ch10out=0, ch11out=0, ch12out=0, battery_voltage=0, battery_current=-1, lat=35.0767268, lon=129.0920458, ch3out=1000}
[2025-03-12 09:58:23] {GCS_IP=172.24.54.249, timestamp=2025-03-12 09:58:23, systemid=1, alt=0.043, dist_traveled=null, wp_dist=0, dist_to_home=6.648932908395088, vertical_speed=0.005545738, ground_speed=0.031394828, wind_vel=0.0, airspeed=0.50906485, roll=0.08, pitch=0.07, yaw=3.75, ch3percent=0.00, ch9out=0, ch10out=0, ch11out=0, ch12out=0, battery_voltage=0, battery_current=-1, lat=35.0767268, lon=129.0920458, ch3out=1000}
[2025-03-12 09:58:24] {GCS_IP=172.24.54.249, timestamp=2025-03-12 09:58:24, systemid=1, alt=0.027, dist_traveled=null, wp_dist=0, dist_to_home=6.648932908395088, vertical_speed=0.011775498, ground_speed=0.03119953, wind_vel=0.0, airspeed=0.7945671, roll=0.08, pitch=0.07, yaw=3.75, ch3percent=0.00, ch9out=0, ch10out=0, ch11out=0, ch12out=0, battery_voltage=0, battery_current=-1, lat=35.0767268, lon=129.0920458, ch3out=1000}
[2025-03-12 09:58:25] {GCS_IP=172.24.54.249, timestamp=2025-03-12 09:58:25, systemid=1, alt=0.071, dist_traveled=null, wp_dist=0, dist_to_home=6.648932908395088, vertical_speed=0.016648121, ground_speed=0.030925568, wind_vel=0.0, airspeed=0.4330421, roll=0.08, pitch=0.07, yaw=3.76, ch3percent=0.00, ch9out=0, ch10out=0, ch11out=0, ch12out=0, battery_voltage=0, battery_current=-1, lat=35.0767268, lon=129.0920458, ch3out=1000}
[2025-03-12 09:58:26] {GCS_IP=172.24.54.249, timestamp=2025-03-12 09:58:26, systemid=1, alt=0.12, dist_traveled=null, wp_dist=0, dist_to_home=6.648932908395088, vertical_speed=0.021407923, ground_speed=0.03082264, wind_vel=0.0, airspeed=0.8401771, roll=0.08, pitch=0.07, yaw=3.76, ch3percent=0.00, ch9out=0, ch10out=0, ch11out=0, ch12out=0, battery_voltage=0, battery_current=-1, lat=35.0767268, lon=129.0920458, ch3out=1000}
[2025-03-12 09:58:27] {GCS_IP=172.24.54.249, timestamp=2025-03-12 09:58:27, systemid=1, alt=0.16, dist_traveled=null, wp_dist=0, dist_to_home=6.648932908395088, vertical_speed=0.022324946, ground_speed=0.030878484, wind_vel=0.0, airspeed=0.79716784, roll=0.08, pitch=0.07, yaw=3.77, ch3percent=0.00, ch9out=0, ch10out=0, ch11out=0, ch12out=0, battery_voltage=0, battery_current=-1, lat=35.0767268, lon=129.0920458, ch3out=1000}
[2025-03-12 09:58:28] {GCS_IP=172.24.54.249, timestamp=2025-03-12 09:58:28, systemid=1, alt=0.177, dist_traveled=null, wp_dist=0, dist_to_home=6.648932908395088, vertical_speed=0.019832838, ground_speed=0.030841047, wind_vel=0.0, airspeed=0.9410242, roll=0.08, pitch=0.07, yaw=3.78, ch3percent=0.00, ch9out=0, ch10out=0, ch11out=0, ch12out=0, battery_voltage=0, battery_current=-1, lat=35.0767268, lon=129.0920458, ch3out=1000}
[2025-03-12 09:58:29] {GCS_IP=172.24.54.249, timestamp=2025-03-12 09:58:29, systemid=1, alt=0.196, dist_traveled=null, wp_dist=0, dist_to_home=6.648932908395088, vertical_speed=0.019465018, ground_speed=0.0310119, wind_vel=0.0, airspeed=0.600711, roll=0.08, pitch=0.07, yaw=3.78, ch3percent=0.00, ch9out=0, ch10out=0, ch11out=0, ch12out=0, battery_voltage=0, battery_current=-1, lat=35.0767268, lon=129.0920458, ch3out=1000}
[2025-03-12 09:58:30] {GCS_IP=172.24.54.249, timestamp=2025-03-12 09:58:30, systemid=1, alt=-0.002, dist_traveled=null, wp_dist=0, dist_to_home=6.648932908395088, vertical_speed=0.015036239, ground_speed=0.03128363, wind_vel=0.0, airspeed=0.5320186, roll=0.08, pitch=0.07, yaw=3.79, ch3percent=0.00, ch9out=0, ch10out=0, ch11out=0, ch12out=0, battery_voltage=0, battery_current=-1, lat=35.0767268, lon=129.0920458, ch3out=1000}
[2025-03-12 09:58:31] {GCS_IP=172.24.54.249, timestamp=2025-03-12 09:58:31, systemid=1, alt=-0.018, dist_traveled=null, wp_dist=0, dist_to_home=6.648932908395088, vertical_speed=0.009239963, ground_speed=0.03133156, wind_vel=0.0, airspeed=0.31552076, roll=0.08, pitch=0.07, yaw=3.79, ch3percent=0.00, ch9out=0, ch10out=0, ch11out=0, ch12out=0, battery_voltage=0, battery_current=-1, lat=35.0767268, lon=129.0920458, ch3out=1000}
[2025-03-12 09:58:32] {GCS_IP=172.24.54.249, timestamp=2025-03-12 09:58:32, systemid=1, alt=-0.044, dist_traveled=null, wp_dist=0, dist_to_home=6.648932908395088, vertical_speed=0.0017465787, ground_speed=0.031571064, wind_vel=0.0, airspeed=0.5034889, roll=0.08, pitch=0.07, yaw=3.80, ch3percent=0.00, ch9out=0, ch10out=0, ch11out=0, ch12out=0, battery_voltage=0, battery_current=-1, lat=35.0767268, lon=129.0920458, ch3out=1000}
[2025-03-12 09:58:33] {GCS_IP=172.24.54.249, timestamp=2025-03-12 09:58:33, systemid=1, alt=-0.064, dist_traveled=null, wp_dist=0, dist_to_home=6.648932908395088, vertical_speed=-0.00274727, ground_speed=0.03146492, wind_vel=0.0, airspeed=0.8539522, roll=0.08, pitch=0.07, yaw=3.80, ch3percent=0.00, ch9out=0, ch10out=0, ch11out=0, ch12out=0, battery_voltage=0, battery_current=-1, lat=35.0767268, lon=129.0920458, ch3out=1000}
[2025-03-12 09:58:34] {GCS_IP=172.24.54.249, timestamp=2025-03-12 09:58:34, systemid=1, alt=-0.07, dist_traveled=null, wp_dist=0, dist_to_home=6.648932908395088, vertical_speed=-0.0032001531, ground_speed=0.03134341, wind_vel=0.0, airspeed=0.73244745, roll=0.08, pitch=0.07, yaw=3.80, ch3percent=0.00, ch9out=0, ch10out=0, ch11out=0, ch12out=0, battery_voltage=0, battery_current=-1, lat=35.0767268, lon=129.0920458, ch3out=1000}
[2025-03-12 09:58:35] {GCS_IP=172.24.54.249, timestamp=2025-03-12 09:58:35, systemid=1, alt=-0.073, dist_traveled=null, wp_dist=0, dist_to_home=6.648932908395088, vertical_speed=-0.004683771, ground_speed=0.031210925, wind_vel=0.0, airspeed=0.71373373, roll=0.08, pitch=0.07, yaw=3.81, ch3percent=0.00, ch9out=0, ch10out=0, ch11out=0, ch12out=0, battery_voltage=0, battery_current=-1, lat=35.0767268, lon=129.0920458, ch3out=1000}
[2025-03-12 09:58:36] {GCS_IP=172.24.54.249, timestamp=2025-03-12 09:58:36, systemid=1, alt=-0.019, dist_traveled=null, wp_dist=0, dist_to_home=6.648932908395088, vertical_speed=-0.007753958, ground_speed=0.031047758, wind_vel=0.0, airspeed=0.7202343, roll=0.08, pitch=0.07, yaw=3.81, ch3percent=0.00, ch9out=0, ch10out=0, ch11out=0, ch12out=0, battery_voltage=0, battery_current=-1, lat=35.0767268, lon=129.0920458, ch3out=1000}
[2025-03-12 09:58:37] {GCS_IP=172.24.54.249, timestamp=2025-03-12 09:58:37, systemid=1, alt=-0.034, dist_traveled=null, wp_dist=0, dist_to_home=6.648932908395088, vertical_speed=-0.008762367, ground_speed=0.03096172, wind_vel=0.0, airspeed=0.7740844, roll=0.08, pitch=0.07, yaw=3.82, ch3percent=0.00, ch9out=0, ch10out=0, ch11out=0, ch12out=0, battery_voltage=0, battery_current=-1, lat=35.0767268, lon=129.0920458, ch3out=1000}
[2025-03-12 09:58:38] {GCS_IP=172.24.54.249, timestamp=2025-03-12 09:58:38, systemid=1, alt=-0.039, dist_traveled=null, wp_dist=0, dist_to_home=6.648932908395088, vertical_speed=-0.0090688495, ground_speed=0.03126937, wind_vel=0.0, airspeed=0.75792617, roll=0.08, pitch=0.07, yaw=3.82, ch3percent=0.00, ch9out=0, ch10out=0, ch11out=0, ch12out=0, battery_voltage=0, battery_current=-1, lat=35.0767268, lon=129.0920458, ch3out=1000}
[2025-03-12 09:58:39] {GCS_IP=172.24.54.249, timestamp=2025-03-12 09:58:39, systemid=1, alt=-0.049, dist_traveled=null, wp_dist=0, dist_to_home=6.648932908395088, vertical_speed=-0.00945263, ground_speed=0.031106997, wind_vel=0.0, airspeed=0.6626134, roll=0.08, pitch=0.07, yaw=3.82, ch3percent=0.00, ch9out=0, ch10out=0, ch11out=0, ch12out=0, battery_voltage=0, battery_current=-1, lat=35.0767268, lon=129.0920458, ch3out=1000}
[2025-03-12 09:58:40] {GCS_IP=172.24.54.249, timestamp=2025-03-12 09:58:40, systemid=1, alt=-0.049, dist_traveled=null, wp_dist=0, dist_to_home=6.648932908395088, vertical_speed=-0.0065698866, ground_speed=0.031179253, wind_vel=0.0, airspeed=0.6059527, roll=0.08, pitch=0.07, yaw=3.83, ch3percent=0.00, ch9out=0, ch10out=0, ch11out=0, ch12out=0, battery_voltage=0, battery_current=-1, lat=35.0767268, lon=129.0920458, ch3out=1000}
[2025-03-12 09:58:41] {GCS_IP=172.24.54.249, timestamp=2025-03-12 09:58:41, systemid=1, alt=-0.009, dist_traveled=null, wp_dist=0, dist_to_home=6.648932908395088, vertical_speed=-0.003417484, ground_speed=0.03105879, wind_vel=0.0, airspeed=0.50840753, roll=0.08, pitch=0.07, yaw=3.83, ch3percent=0.00, ch9out=0, ch10out=0, ch11out=0, ch12out=0, battery_voltage=0, battery_current=-1, lat=35.0767268, lon=129.0920458, ch3out=1000}
[2025-03-12 09:58:42] {GCS_IP=172.24.54.249, timestamp=2025-03-12 09:58:42, systemid=1, alt=0.003, dist_traveled=null, wp_dist=0, dist_to_home=6.648932908395088, vertical_speed=-0.003293724, ground_speed=0.03100876, wind_vel=0.0, airspeed=0.21178278, roll=0.08, pitch=0.07, yaw=3.84, ch3percent=0.00, ch9out=0, ch10out=0, ch11out=0, ch12out=0, battery_voltage=0, battery_current=-1, lat=35.0767268, lon=129.0920458, ch3out=1000}
[2025-03-12 09:58:43] {GCS_IP=172.24.54.249, timestamp=2025-03-12 09:58:43, systemid=1, alt=0.005, dist_traveled=null, wp_dist=0, dist_to_home=6.648932908395088, vertical_speed=-0.0023958765, ground_speed=0.031176636, wind_vel=0.0, airspeed=0.66170174, roll=0.08, pitch=0.07, yaw=3.84, ch3percent=0.00, ch9out=0, ch10out=0, ch11out=0, ch12out=0, battery_voltage=0, battery_current=-1, lat=35.0767268, lon=129.0920458, ch3out=1000}
[2025-03-12 09:58:44] {GCS_IP=172.24.54.249, timestamp=2025-03-12 09:58:44, systemid=1, alt=-0.001, dist_traveled=null, wp_dist=0, dist_to_home=6.648932908395088, vertical_speed=-0.0028993785, ground_speed=0.031535234, wind_vel=0.0, airspeed=0.44916382, roll=0.08, pitch=0.07, yaw=3.84, ch3percent=0.00, ch9out=0, ch10out=0, ch11out=0, ch12out=0, battery_voltage=0, battery_current=-1, lat=35.0767268, lon=129.0920458, ch3out=1000}
[2025-03-12 09:58:45] {GCS_IP=172.24.54.249, timestamp=2025-03-12 09:58:45, systemid=1, alt=-0.03, dist_traveled=null, wp_dist=0, dist_to_home=6.648932908395088, vertical_speed=-0.0070878332, ground_speed=0.031599473, wind_vel=0.0, airspeed=0.16227397, roll=0.08, pitch=0.07, yaw=3.85, ch3percent=0.00, ch9out=0, ch10out=0, ch11out=0, ch12out=0, battery_voltage=0, battery_current=-1, lat=35.0767268, lon=129.0920458, ch3out=1000}
[2025-03-12 09:58:46] {GCS_IP=172.24.54.249, timestamp=2025-03-12 09:58:46, systemid=1, alt=-0.039, dist_traveled=null, wp_dist=0, dist_to_home=6.648932908395088, vertical_speed=-0.007187128, ground_speed=0.031476878, wind_vel=0.0, airspeed=0.48521602, roll=0.08, pitch=0.07, yaw=3.85, ch3percent=0.00, ch9out=0, ch10out=0, ch11out=0, ch12out=0, battery_voltage=0, battery_current=-1, lat=35.0767268, lon=129.0920458, ch3out=1000}
[2025-03-12 09:58:47] {GCS_IP=172.24.54.249, timestamp=2025-03-12 09:58:47, systemid=1, alt=-0.017, dist_traveled=null, wp_dist=0, dist_to_home=6.648932908395088, vertical_speed=-0.0065775355, ground_speed=0.031615492, wind_vel=0.0, airspeed=0.6663605, roll=0.08, pitch=0.07, yaw=3.85, ch3percent=0.00, ch9out=0, ch10out=0, ch11out=0, ch12out=0, battery_voltage=0, battery_current=-1, lat=35.0767268, lon=129.0920458, ch3out=1000}
[2025-03-12 09:58:48] {GCS_IP=172.24.54.249, timestamp=2025-03-12 09:58:48, systemid=1, alt=0.013, dist_traveled=null, wp_dist=0, dist_to_home=6.648932908395088, vertical_speed=-0.002914361, ground_speed=0.031406477, wind_vel=0.0, airspeed=0.3947321, roll=0.08, pitch=0.07, yaw=3.86, ch3percent=0.00, ch9out=0, ch10out=0, ch11out=0, ch12out=0, battery_voltage=0, battery_current=-1, lat=35.0767268, lon=129.0920458, ch3out=1000}
[2025-03-12 09:58:49] {GCS_IP=172.24.54.249, timestamp=2025-03-12 09:58:49, systemid=1, alt=0.001, dist_traveled=null, wp_dist=0, dist_to_home=6.648932908395088, vertical_speed=-0.003889518, ground_speed=0.03134422, wind_vel=0.0, airspeed=0.37047014, roll=0.08, pitch=0.07, yaw=3.86, ch3percent=0.00, ch9out=0, ch10out=0, ch11out=0, ch12out=0, battery_voltage=0, battery_current=-1, lat=35.0767268, lon=129.0920458, ch3out=1000}
[2025-03-12 09:58:50] {GCS_IP=172.24.54.249, timestamp=2025-03-12 09:58:50, systemid=1, alt=-0.001, dist_traveled=null, wp_dist=0, dist_to_home=6.648932908395088, vertical_speed=-0.0034249958, ground_speed=0.03139834, wind_vel=0.0, airspeed=0.6658944, roll=0.08, pitch=0.07, yaw=3.86, ch3percent=0.00, ch9out=0, ch10out=0, ch11out=0, ch12out=0, battery_voltage=0, battery_current=-1, lat=35.0767268, lon=129.0920458, ch3out=1000}
[2025-03-12 09:58:52] {GCS_IP=172.24.54.249, timestamp=2025-03-12 09:58:51, systemid=1, alt=-0.023, dist_traveled=null, wp_dist=0, dist_to_home=6.648932908395088, vertical_speed=-0.0061413045, ground_speed=0.031269975, wind_vel=0.0, airspeed=0.72789854, roll=0.08, pitch=0.07, yaw=3.86, ch3percent=0.00, ch9out=0, ch10out=0, ch11out=0, ch12out=0, battery_voltage=0, battery_current=-1, lat=35.0767268, lon=129.0920458, ch3out=1000}
[2025-03-12 09:58:53] {GCS_IP=172.24.54.249, timestamp=2025-03-12 09:58:52, systemid=1, alt=-0.033, dist_traveled=null, wp_dist=0, dist_to_home=6.648932908395088, vertical_speed=-0.0062693045, ground_speed=0.031049581, wind_vel=0.0, airspeed=0.9990399, roll=0.08, pitch=0.07, yaw=3.86, ch3percent=0.00, ch9out=0, ch10out=0, ch11out=0, ch12out=0, battery_voltage=0, battery_current=-1, lat=35.0767268, lon=129.0920458, ch3out=1000}
[2025-03-12 09:58:54] {GCS_IP=172.24.54.249, timestamp=2025-03-12 09:58:53, systemid=1, alt=-0.013, dist_traveled=null, wp_dist=0, dist_to_home=6.648932908395088, vertical_speed=-0.005731728, ground_speed=0.03090303, wind_vel=0.0, airspeed=0.5782972, roll=0.08, pitch=0.07, yaw=3.87, ch3percent=0.00, ch9out=0, ch10out=0, ch11out=0, ch12out=0, battery_voltage=0, battery_current=-1, lat=35.0767268, lon=129.0920458, ch3out=1000}
[2025-03-12 09:58:55] {GCS_IP=172.24.54.249, timestamp=2025-03-12 09:58:54, systemid=1, alt=-0.023, dist_traveled=null, wp_dist=0, dist_to_home=6.648932908395088, vertical_speed=-0.008060444, ground_speed=0.03102239, wind_vel=0.0, airspeed=0.6051821, roll=0.08, pitch=0.07, yaw=3.87, ch3percent=0.00, ch9out=0, ch10out=0, ch11out=0, ch12out=0, battery_voltage=0, battery_current=-1, lat=35.0767268, lon=129.0920458, ch3out=1000}
[2025-03-12 09:58:56] {GCS_IP=172.24.54.249, timestamp=2025-03-12 09:58:55, systemid=1, alt=-0.038, dist_traveled=null, wp_dist=0, dist_to_home=6.648932908395088, vertical_speed=-0.008613231, ground_speed=0.03075689, wind_vel=0.0, airspeed=0.70906055, roll=0.08, pitch=0.07, yaw=3.87, ch3percent=0.00, ch9out=0, ch10out=0, ch11out=0, ch12out=0, battery_voltage=0, battery_current=-1, lat=35.0767268, lon=129.0920458, ch3out=1000}
[2025-03-12 09:58:57] {GCS_IP=172.24.54.249, timestamp=2025-03-12 09:58:56, systemid=1, alt=-0.056, dist_traveled=null, wp_dist=0, dist_to_home=6.648932908395088, vertical_speed=-0.00954782, ground_speed=0.030951545, wind_vel=0.0, airspeed=0.077275425, roll=0.08, pitch=0.07, yaw=3.87, ch3percent=0.00, ch9out=0, ch10out=0, ch11out=0, ch12out=0, battery_voltage=0, battery_current=-1, lat=35.0767268, lon=129.0920458, ch3out=1000}
